{"Business ID": "ax4INkzwL__-d_kGJfcA-w", "Name": "Kaikagetsu NYC", "Address": "162 Orchard St", "Coordinates": {"latitude": 40.72104, "longitude": -73.98848}, "Number_of_Reviews": 62, "Rating": 4.5, "Zip Code": "10002", "insertedAtTimestamp": "Feb 23 22:18:14 2020 GMT-8"}
{"Business ID": "OLSSJIp8pu5UlugTF7tuHA", "Name": "Ootoya Chelsea", "Address": "8 W 18th St", "Coordinates": {"latitude": 40.738767, "longitude": -73.992778}, "Number_of_Reviews": 1396, "Rating": 4.0, "Zip Code": "10011", "insertedAtTimestamp": "Feb 23 22:18:14 2020 GMT-8"}
{"Business ID": "FlZ1zdVEKWv7dwqm8Uw8-w", "Name": "Raku", "Address": "342 E 6th St", "Coordinates": {"latitude": 40.7264988089246, "longitude": -73.9866526052356}, "Number_of_Reviews": 1062, "Rating": 4.5, "Zip Code": "10003", "insertedAtTimestamp": "Feb 23 22:18:14 2020 GMT-8"}
{"Business ID": "qm1J_dPA5IHij1oAnoZwHw", "Name": "nonono", "Address": "118 Madison Ave", "Coordinates": {"latitude": 40.74545, "longitude": -73.98499}, "Number_of_Reviews": 697, "Rating": 4.5, "Zip Code": "10016", "insertedAtTimestamp": "Feb 23 22:18:15 2020 GMT-8"}
{"Business ID": "axqp3pGJXnTLgq2QrPyDyQ", "Name": "Benemon", "Address": "108 E 4th St", "Coordinates": {"latitude": 40.72551, "longitude": -73.98838}, "Number_of_Reviews": 545, "Rating": 4.5, "Zip Code": "10003", "insertedAtTimestamp": "Feb 23 22:18:15 2020 GMT-8"}
{"Business ID": "BPZfuPvSxCfoppU4lPFm0Q", "Name": "DOMODOMO New York", "Address": "140 W Houston St", "Coordinates": {"latitude": 40.72803, "longitude": -74.00167}, "Number_of_Reviews": 1079, "Rating": 4.5, "Zip Code": "10012", "insertedAtTimestamp": "Feb 23 22:18:15 2020 GMT-8"}
{"Business ID": "7OMGEtFWT6sdd9TVuoGqJQ", "Name": "Okonomi", "Address": "150 Ainslie St", "Coordinates": {"latitude": 40.712622, "longitude": -73.9487843}, "Number_of_Reviews": 454, "Rating": 4.5, "Zip Code": "11211", "insertedAtTimestamp": "Feb 23 22:18:15 2020 GMT-8"}
{"Business ID": "Uu1wc7CrweSIB4B7FLdbwg", "Name": "Fukurou", "Address": "87 MacDougal St", "Coordinates": {"latitude": 40.72905, "longitude": -74.00143}, "Number_of_Reviews": 314, "Rating": 4.0, "Zip Code": "10012", "insertedAtTimestamp": "Feb 23 22:18:16 2020 GMT-8"}
{"Business ID": "pqqhHTz_ZpApsaWGa_zMTA", "Name": "Douska", "Address": "63 Delancey St", "Coordinates": {"latitude": 40.7191369, "longitude": -73.9908998}, "Number_of_Reviews": 62, "Rating": 4.5, "Zip Code": "10002", "insertedAtTimestamp": "Feb 23 22:18:16 2020 GMT-8"}
{"Business ID": "OjL4yNu-EpUOeUMC64DWJw", "Name": "IZAKAYA NYC on East 4th", "Address": "215 East 4th StGround floor", "Coordinates": {"latitude": 40.723881, "longitude": -73.983428}, "Number_of_Reviews": 3, "Rating": 5.0, "Zip Code": "10009", "insertedAtTimestamp": "Feb 23 22:18:16 2020 GMT-8"}
{"Business ID": "m1cJLpDN4B-_0hGgPfe5OA", "Name": "Salt + Charcoal", "Address": "171 Grand St", "Coordinates": {"latitude": 40.71453, "longitude": -73.9613511}, "Number_of_Reviews": 462, "Rating": 4.0, "Zip Code": "11249", "insertedAtTimestamp": "Feb 23 22:18:16 2020 GMT-8"}
{"Business ID": "7iY35991NhQ1AShJZCNZgA", "Name": "Sakagura", "Address": "211 E 43rd St", "Coordinates": {"latitude": 40.7516467024541, "longitude": -73.9729489318165}, "Number_of_Reviews": 1778, "Rating": 4.0, "Zip Code": "10017", "insertedAtTimestamp": "Feb 23 22:18:17 2020 GMT-8"}
{"Business ID": "6qzNc9Z9DHYYleKqrW_K3g", "Name": "Takashi", "Address": "456 Hudson St", "Coordinates": {"latitude": 40.7313524, "longitude": -74.0065048}, "Number_of_Reviews": 978, "Rating": 4.0, "Zip Code": "10014", "insertedAtTimestamp": "Feb 23 22:18:17 2020 GMT-8"}
{"Business ID": "Qli775QfVY4oFPNu7Cy5Tw", "Name": "Sun-Chan Japanese Restaurant", "Address": "2707 Broadway", "Coordinates": {"latitude": 40.7995, "longitude": -73.9686399}, "Number_of_Reviews": 212, "Rating": 3.5, "Zip Code": "10025", "insertedAtTimestamp": "Feb 23 22:18:17 2020 GMT-8"}
{"Business ID": "RYKGs45OjF-vlb2Ds2Jb_g", "Name": "Izakaya Juraku", "Address": "121 Ludlow St", "Coordinates": {"latitude": 40.7196796287355, "longitude": -73.9887088537216}, "Number_of_Reviews": 97, "Rating": 4.5, "Zip Code": "10002", "insertedAtTimestamp": "Feb 23 22:18:17 2020 GMT-8"}
{"Business ID": "i8F0fnempD5fTb2CxbwKDw", "Name": "Izakaya", "Address": "326 E 6th St", "Coordinates": {"latitude": 40.72667, "longitude": -73.98738}, "Number_of_Reviews": 248, "Rating": 4.0, "Zip Code": "10003", "insertedAtTimestamp": "Feb 23 22:18:18 2020 GMT-8"}
{"Business ID": "6lUsFj0KCao678o9L7QwUw", "Name": "Hatsuhana Sushi Restaurant", "Address": "17 E 48th St", "Coordinates": {"latitude": 40.75703, "longitude": -73.97692}, "Number_of_Reviews": 1327, "Rating": 4.0, "Zip Code": "10017", "insertedAtTimestamp": "Feb 23 22:18:18 2020 GMT-8"}
{"Business ID": "Nbqzy3ea5_x2zXWkdWlUIQ", "Name": "Sake Bar Hagi 46", "Address": "358 W 46th St", "Coordinates": {"latitude": 40.76057, "longitude": -73.99008}, "Number_of_Reviews": 303, "Rating": 4.0, "Zip Code": "10036", "insertedAtTimestamp": "Feb 23 22:18:18 2020 GMT-8"}
{"Business ID": "pNe8ZCkGTe4cXfKdOF7kYQ", "Name": "Ise Restaurant", "Address": "63 Cooper Sq", "Coordinates": {"latitude": 40.7291024, "longitude": -73.9900618}, "Number_of_Reviews": 450, "Rating": 4.5, "Zip Code": "10003", "insertedAtTimestamp": "Feb 23 22:18:18 2020 GMT-8"}
{"Business ID": "-J8VuX3wGrYSOBu2G0hMsw", "Name": "Katsu-Hama", "Address": "11 E 47th St", "Coordinates": {"latitude": 40.75638, "longitude": -73.97759}, "Number_of_Reviews": 1312, "Rating": 4.0, "Zip Code": "10017", "insertedAtTimestamp": "Feb 23 22:18:19 2020 GMT-8"}
{"Business ID": "DpZ7Xaub8Lhpg7VJdHaPpg", "Name": "Zenkichi New York", "Address": "77 N 6th St", "Coordinates": {"latitude": 40.71897, "longitude": -73.96081}, "Number_of_Reviews": 986, "Rating": 4.0, "Zip Code": "11249", "insertedAtTimestamp": "Feb 23 22:18:19 2020 GMT-8"}
{"Business ID": "KJTTqIxuB0BEsYxLaYyAZw", "Name": "Tonkatsu Matsunoya", "Address": "131 E 45th St", "Coordinates": {"latitude": 40.7533493041992, "longitude": -73.9741592407227}, "Number_of_Reviews": 395, "Rating": 4.0, "Zip Code": "10017", "insertedAtTimestamp": "Feb 23 22:18:19 2020 GMT-8"}
{"Business ID": "klAhw3xLQi9GF1tf_HnS7w", "Name": "Izakaya MEW", "Address": "53 W 35th St", "Coordinates": {"latitude": 40.7501853096499, "longitude": -73.9863203465939}, "Number_of_Reviews": 2280, "Rating": 4.0, "Zip Code": "10001", "insertedAtTimestamp": "Feb 23 22:18:20 2020 GMT-8"}
{"Business ID": "lxQ-tzFmL1tmUqZUN-CSRQ", "Name": "Bozu", "Address": "296 Grand St", "Coordinates": {"latitude": 40.7129, "longitude": -73.95749}, "Number_of_Reviews": 827, "Rating": 4.0, "Zip Code": "11211", "insertedAtTimestamp": "Feb 23 22:18:20 2020 GMT-8"}
{"Business ID": "PAQDvkvVselqlhOc0Mh92g", "Name": "Doma", "Address": "120 1st Ave", "Coordinates": {"latitude": 40.72703, "longitude": -73.985392}, "Number_of_Reviews": 29, "Rating": 5.0, "Zip Code": "10009", "insertedAtTimestamp": "Feb 23 22:18:20 2020 GMT-8"}
{"Business ID": "BOz0qTUMtAfljd3Vn1rerQ", "Name": "Pado", "Address": "199 2nd Ave", "Coordinates": {"latitude": 40.7314, "longitude": -73.98589}, "Number_of_Reviews": 286, "Rating": 4.5, "Zip Code": "10003", "insertedAtTimestamp": "Feb 23 22:18:20 2020 GMT-8"}
{"Business ID": "YC-wGlO0oOkEIaCEDZv-ag", "Name": "Yakitori Totto", "Address": "251 W 55th StFl 2", "Coordinates": {"latitude": 40.765375, "longitude": -73.983114}, "Number_of_Reviews": 1304, "Rating": 4.0, "Zip Code": "10019", "insertedAtTimestamp": "Feb 23 22:18:21 2020 GMT-8"}
{"Business ID": "kN3rkbjvqkY62CDRYUVz4g", "Name": "Yopparai", "Address": "151 Rivington StFl 1", "Coordinates": {"latitude": 40.71919, "longitude": -73.98571}, "Number_of_Reviews": 228, "Rating": 4.5, "Zip Code": "10002", "insertedAtTimestamp": "Feb 23 22:18:21 2020 GMT-8"}
{"Business ID": "OFfZUS-nu6NDnsWe1B2bUQ", "Name": "TONCHIN NEW YORK", "Address": "13 W 36th St", "Coordinates": {"latitude": 40.7502727, "longitude": -73.9844951}, "Number_of_Reviews": 1148, "Rating": 4.5, "Zip Code": "10018", "insertedAtTimestamp": "Feb 23 22:18:21 2020 GMT-8"}
{"Business ID": "kesYSgOJW5krU6L8n9qQ4Q", "Name": "Ichibantei", "Address": "401 E 13th St", "Coordinates": {"latitude": 40.73063, "longitude": -73.98275}, "Number_of_Reviews": 204, "Rating": 4.0, "Zip Code": "10009", "insertedAtTimestamp": "Feb 23 22:18:21 2020 GMT-8"}
{"Business ID": "kwq1W0opBnOYKoUXWYyQ5g", "Name": "Momokawa", "Address": "1466 1st Ave", "Coordinates": {"latitude": 40.77047, "longitude": -73.9537}, "Number_of_Reviews": 148, "Rating": 4.0, "Zip Code": "10075", "insertedAtTimestamp": "Feb 23 22:18:22 2020 GMT-8"}
{"Business ID": "o5EIqc4LekAoeLHiYjzLqQ", "Name": "Bar Goto", "Address": "245 Eldridge St", "Coordinates": {"latitude": 40.72277, "longitude": -73.98989}, "Number_of_Reviews": 221, "Rating": 4.5, "Zip Code": "10002", "insertedAtTimestamp": "Feb 23 22:18:22 2020 GMT-8"}
{"Business ID": "pGYovGGnxm0tMmkiQJPygA", "Name": "Ume Williamsburg", "Address": "237 Kent Ave", "Coordinates": {"latitude": 40.71657, "longitude": -73.96559}, "Number_of_Reviews": 149, "Rating": 4.0, "Zip Code": "11249", "insertedAtTimestamp": "Feb 23 22:18:22 2020 GMT-8"}
{"Business ID": "22CRLIEfJWIO-8RjEiecAg", "Name": "Akino", "Address": "82-80 Broadway", "Coordinates": {"latitude": 40.7411784, "longitude": -73.8814239}, "Number_of_Reviews": 694, "Rating": 4.5, "Zip Code": "11373", "insertedAtTimestamp": "Feb 23 22:18:23 2020 GMT-8"}
{"Business ID": "KfaG5PoTEPpbODHBta9irw", "Name": "Hakata Tonton", "Address": "61 Grove St", "Coordinates": {"latitude": 40.733234, "longitude": -74.003326}, "Number_of_Reviews": 1009, "Rating": 4.0, "Zip Code": "10014", "insertedAtTimestamp": "Feb 23 22:18:23 2020 GMT-8"}
{"Business ID": "ULDVJYTT-47RqbLtlR_FUA", "Name": "Ootoya Greenwich Village", "Address": "41 E 11th St", "Coordinates": {"latitude": 40.73316, "longitude": -73.99273}, "Number_of_Reviews": 314, "Rating": 4.0, "Zip Code": "10003", "insertedAtTimestamp": "Feb 23 22:18:23 2020 GMT-8"}
{"Business ID": "7rxg-tWPc1jK7Cikn5R86g", "Name": "Hi-Collar", "Address": "214 E 10th St", "Coordinates": {"latitude": 40.7293077268171, "longitude": -73.9859368048935}, "Number_of_Reviews": 586, "Rating": 4.0, "Zip Code": "10003", "insertedAtTimestamp": "Feb 23 22:18:24 2020 GMT-8"}
{"Business ID": "IVDk7BYFWwFsYPRbHLd49w", "Name": "Takeda", "Address": "566 Amsterdam Ave", "Coordinates": {"latitude": 40.788749, "longitude": -73.974599}, "Number_of_Reviews": 26, "Rating": 5.0, "Zip Code": "10024", "insertedAtTimestamp": "Feb 23 22:18:24 2020 GMT-8"}
{"Business ID": "itblJyiTY2h2ACidLk66oA", "Name": "Takahachi", "Address": "85 Ave A", "Coordinates": {"latitude": 40.725315, "longitude": -73.984436}, "Number_of_Reviews": 557, "Rating": 4.0, "Zip Code": "10009", "insertedAtTimestamp": "Feb 23 22:18:24 2020 GMT-8"}
{"Business ID": "qf9ONR0LAAFZ8fLDRkVHww", "Name": "Mori", "Address": "351 5th Ave", "Coordinates": {"latitude": 40.671718, "longitude": -73.983902}, "Number_of_Reviews": 111, "Rating": 4.5, "Zip Code": "11215", "insertedAtTimestamp": "Feb 23 22:18:25 2020 GMT-8"}
{"Business ID": "lEH8EUPX3Zn_trHauIycYw", "Name": "Aoi Kitchen", "Address": "320 E 6th St", "Coordinates": {"latitude": 40.72683167, "longitude": -73.98754333}, "Number_of_Reviews": 71, "Rating": 4.5, "Zip Code": "10003", "insertedAtTimestamp": "Feb 23 22:18:25 2020 GMT-8"}
{"Business ID": "HZWHBfeuP4Fb6y8b8uqnbA", "Name": "Sushi Yasaka", "Address": "251 W 72nd St", "Coordinates": {"latitude": 40.779583, "longitude": -73.983482}, "Number_of_Reviews": 1747, "Rating": 4.0, "Zip Code": "10023", "insertedAtTimestamp": "Feb 23 22:18:25 2020 GMT-8"}
{"Business ID": "5agbggvhHI_juAZRfCqtZw", "Name": "Iki Modern Japanese Cuisine", "Address": "133-42 39th AveHyatt Place Hotel", "Coordinates": {"latitude": 40.7593752743543, "longitude": -73.8328623173734}, "Number_of_Reviews": 245, "Rating": 4.0, "Zip Code": "11354", "insertedAtTimestamp": "Feb 23 22:18:25 2020 GMT-8"}
{"Business ID": "LOFl1w5bXrAdDRAQ-vi3_A", "Name": "Koyo", "Address": "3712 31st Ave", "Coordinates": {"latitude": 40.76164, "longitude": -73.91838}, "Number_of_Reviews": 23, "Rating": 5.0, "Zip Code": "11103", "insertedAtTimestamp": "Feb 23 22:18:26 2020 GMT-8"}
{"Business ID": "XAEwG1bfAiWUewpzZnB2uw", "Name": "Chikarashi Isso", "Address": "38 Rector St", "Coordinates": {"latitude": 40.708376, "longitude": -74.0144832}, "Number_of_Reviews": 37, "Rating": 4.0, "Zip Code": "10006", "insertedAtTimestamp": "Feb 23 22:18:26 2020 GMT-8"}
{"Business ID": "tyyqm0ftkoKQxednWNh0Tg", "Name": "UOGASHI", "Address": "318 West 51st St", "Coordinates": {"latitude": 40.76326, "longitude": -73.98671}, "Number_of_Reviews": 73, "Rating": 4.5, "Zip Code": "10019", "insertedAtTimestamp": "Feb 23 22:18:26 2020 GMT-8"}
{"Business ID": "qEe7nIhPfEL6L0-VYhWRrA", "Name": "Raku", "Address": "48 Macdougal St", "Coordinates": {"latitude": 40.72728, "longitude": -74.00252}, "Number_of_Reviews": 367, "Rating": 4.5, "Zip Code": "10012", "insertedAtTimestamp": "Feb 23 22:18:27 2020 GMT-8"}
{"Business ID": "wjIyCBEpCG_HRp8veiI0YQ", "Name": "Ootoya Times Square", "Address": "141 W 41st St", "Coordinates": {"latitude": 40.75487, "longitude": -73.98599}, "Number_of_Reviews": 928, "Rating": 4.0, "Zip Code": "10036", "insertedAtTimestamp": "Feb 23 22:18:27 2020 GMT-8"}
{"Business ID": "Uoic12Je-GLfRp3D3Klp5g", "Name": "Umi No Ie", "Address": "86 E 3rd St", "Coordinates": {"latitude": 40.724637, "longitude": -73.988227}, "Number_of_Reviews": 153, "Rating": 4.0, "Zip Code": "10003", "insertedAtTimestamp": "Feb 23 22:18:27 2020 GMT-8"}
{"Business ID": "diz6_4TVSP6EdWEZCZ0Acg", "Name": "Kaoru", "Address": "306 E 46th St", "Coordinates": {"latitude": 40.75202, "longitude": -73.96977}, "Number_of_Reviews": 330, "Rating": 4.5, "Zip Code": "10017", "insertedAtTimestamp": "Feb 23 22:18:27 2020 GMT-8"}
{"Business ID": "icZcEK39HXuL2q08i4EkkQ", "Name": "Bessou", "Address": "5 Bleecker St", "Coordinates": {"latitude": 40.725502, "longitude": -73.992675}, "Number_of_Reviews": 257, "Rating": 4.0, "Zip Code": "10012", "insertedAtTimestamp": "Feb 23 22:18:28 2020 GMT-8"}
{"Business ID": "wpT1QU7PSQgQQ1DkzI00JA", "Name": "Izakaya Toribar", "Address": "164 E 56th St", "Coordinates": {"latitude": 40.759663, "longitude": -73.9685558}, "Number_of_Reviews": 26, "Rating": 5.0, "Zip Code": "10022", "insertedAtTimestamp": "Feb 23 22:18:29 2020 GMT-8"}
{"Business ID": "SUHJfh7H2NiQx8c5OWoAyQ", "Name": "Sushi Yashin", "Address": "381 5th Ave", "Coordinates": {"latitude": 40.6708328473989, "longitude": -73.9847132950057}, "Number_of_Reviews": 187, "Rating": 4.0, "Zip Code": "11215", "insertedAtTimestamp": "Feb 23 22:18:29 2020 GMT-8"}
{"Business ID": "VzstANC68PM1BbyOcDXEtw", "Name": "Donburiya", "Address": "253 W 55th St", "Coordinates": {"latitude": 40.76528, "longitude": -73.98326}, "Number_of_Reviews": 344, "Rating": 4.0, "Zip Code": "10019", "insertedAtTimestamp": "Feb 23 22:18:30 2020 GMT-8"}
{"Business ID": "K54qUgd274Fj_LvHCjeSFw", "Name": "Okinii", "Address": "216 Thompson St", "Coordinates": {"latitude": 40.72894, "longitude": -73.99911}, "Number_of_Reviews": 305, "Rating": 4.0, "Zip Code": "10012", "insertedAtTimestamp": "Feb 23 22:18:30 2020 GMT-8"}
{"Business ID": "L9SuMN3UsGipopWOe3pr9w", "Name": "Chiko", "Address": "954 Manhattan Ave", "Coordinates": {"latitude": 40.7319, "longitude": -73.95422}, "Number_of_Reviews": 36, "Rating": 5.0, "Zip Code": "11222", "insertedAtTimestamp": "Feb 23 22:18:30 2020 GMT-8"}
{"Business ID": "ZaJS8EKQNSaQpwpmgN-vVw", "Name": "Samurai Mama", "Address": "205 Grand St", "Coordinates": {"latitude": 40.7140208838114, "longitude": -73.960325717926}, "Number_of_Reviews": 591, "Rating": 4.0, "Zip Code": "11211", "insertedAtTimestamp": "Feb 23 22:18:30 2020 GMT-8"}
{"Business ID": "FYWwW5lcxKzaA98Xgw8bqA", "Name": "hanon", "Address": "436 Union Ave", "Coordinates": {"latitude": 40.7134488, "longitude": -73.9513445}, "Number_of_Reviews": 100, "Rating": 4.5, "Zip Code": "11211", "insertedAtTimestamp": "Feb 23 22:18:31 2020 GMT-8"}
{"Business ID": "eyjeP9CJZ_gYgeJFP_vtpQ", "Name": "Karasu", "Address": "166 Dekalb AveWalter's", "Coordinates": {"latitude": 40.689411, "longitude": -73.973256}, "Number_of_Reviews": 99, "Rating": 4.0, "Zip Code": "11217", "insertedAtTimestamp": "Feb 23 22:18:31 2020 GMT-8"}
{"Business ID": "2ZVnk4slnk8QpFwVLfYfYw", "Name": "Sakagura East Village", "Address": "231 E 9th St", "Coordinates": {"latitude": 40.72956, "longitude": -73.98785}, "Number_of_Reviews": 36, "Rating": 4.0, "Zip Code": "10003", "insertedAtTimestamp": "Feb 23 22:18:31 2020 GMT-8"}
{"Business ID": "h39BQIDV_7IDiro9WkDyag", "Name": "Gatsu Gatsu", "Address": "196 Smith St", "Coordinates": {"latitude": 40.68506, "longitude": -73.99173}, "Number_of_Reviews": 7, "Rating": 4.0, "Zip Code": "11201", "insertedAtTimestamp": "Feb 23 22:18:31 2020 GMT-8"}
{"Business ID": "PwrYnl3j3YCGzILX_5UHpw", "Name": "Davelle", "Address": "102 Suffolk St", "Coordinates": {"latitude": 40.71852, "longitude": -73.98605}, "Number_of_Reviews": 117, "Rating": 4.0, "Zip Code": "10002", "insertedAtTimestamp": "Feb 23 22:18:32 2020 GMT-8"}
{"Business ID": "1yqrirjDVm40roP-NcU-Ig", "Name": "Komorebi Full House", "Address": "6201 11th Ave", "Coordinates": {"latitude": 40.630169, "longitude": -74.004041}, "Number_of_Reviews": 29, "Rating": 4.5, "Zip Code": "11219", "insertedAtTimestamp": "Feb 23 22:18:32 2020 GMT-8"}
{"Business ID": "Pe4cQ65ZJ9qS8JQZVkJz4g", "Name": "shabushabu Mayumon", "Address": "115 Division St", "Coordinates": {"latitude": 40.71434, "longitude": -73.99205}, "Number_of_Reviews": 13, "Rating": 5.0, "Zip Code": "10002", "insertedAtTimestamp": "Feb 23 22:18:32 2020 GMT-8"}
{"Business ID": "HFn1sPqKSzvxaMk2n2ZtJw", "Name": "Kotobuki Manhattan", "Address": "56 3rd Ave", "Coordinates": {"latitude": 40.731107, "longitude": -73.98912}, "Number_of_Reviews": 609, "Rating": 4.0, "Zip Code": "10003", "insertedAtTimestamp": "Feb 23 22:18:32 2020 GMT-8"}
{"Business ID": "9xRIcn0jTyvWNH9aBO3oAA", "Name": "Kenka", "Address": "25 St Marks Pl", "Coordinates": {"latitude": 40.72913, "longitude": -73.988465}, "Number_of_Reviews": 1538, "Rating": 3.5, "Zip Code": "10003", "insertedAtTimestamp": "Feb 23 22:18:33 2020 GMT-8"}
{"Business ID": "EvAJBgBdgOt1jx1EufRN7w", "Name": "Jin Ramen", "Address": "462 Amsterdam Ave", "Coordinates": {"latitude": 40.78534, "longitude": -73.97695}, "Number_of_Reviews": 893, "Rating": 4.0, "Zip Code": "10024", "insertedAtTimestamp": "Feb 23 22:18:33 2020 GMT-8"}
{"Business ID": "1TEsPWu212B918MtgiSu3g", "Name": "Jintan", "Address": "10th St & 1st Ave", "Coordinates": {"latitude": 40.7288289984002, "longitude": -73.9841578558473}, "Number_of_Reviews": 47, "Rating": 4.0, "Zip Code": "10009", "insertedAtTimestamp": "Feb 23 22:18:33 2020 GMT-8"}
{"Business ID": "Ad3dUoLatOdNtB4LxfmmWg", "Name": "Yakitori Taisho", "Address": "5 St Marks PlSte 1", "Coordinates": {"latitude": 40.729535, "longitude": -73.9892642}, "Number_of_Reviews": 1576, "Rating": 3.5, "Zip Code": "10003", "insertedAtTimestamp": "Feb 23 22:18:34 2020 GMT-8"}
{"Business ID": "Nnc2RVv5TPNAy70gOJrc-Q", "Name": "Moonrise Izakaya", "Address": "774 Amsterdam Ave", "Coordinates": {"latitude": 40.795399, "longitude": -73.969762}, "Number_of_Reviews": 50, "Rating": 4.5, "Zip Code": "10025", "insertedAtTimestamp": "Feb 23 22:18:34 2020 GMT-8"}
{"Business ID": "IAAMu9TfVLopuSSiqQeqhg", "Name": "Mazete", "Address": "666 6th Ave", "Coordinates": {"latitude": 40.741263, "longitude": -73.993641}, "Number_of_Reviews": 11, "Rating": 4.5, "Zip Code": "10010", "insertedAtTimestamp": "Feb 23 22:18:34 2020 GMT-8"}
{"Business ID": "X7G_sOUkfYVsZzA1WUuYwg", "Name": "Torien", "Address": "292 Elizabeth St", "Coordinates": {"latitude": 40.724773, "longitude": -73.993168}, "Number_of_Reviews": 8, "Rating": 4.5, "Zip Code": "10012", "insertedAtTimestamp": "Feb 23 22:18:34 2020 GMT-8"}
{"Business ID": "HO8vjBAFY3GU1erXMZ_UbQ", "Name": "CHOCHIN", "Address": "310 E 93rd St", "Coordinates": {"latitude": 40.781805, "longitude": -73.947887}, "Number_of_Reviews": 91, "Rating": 4.5, "Zip Code": "10128", "insertedAtTimestamp": "Feb 23 22:18:35 2020 GMT-8"}
{"Business ID": "i8ejDDR4COtukAAA1Ls5fw", "Name": "Soba-ya", "Address": "229 E 9th St", "Coordinates": {"latitude": 40.7296485900879, "longitude": -73.9878845214844}, "Number_of_Reviews": 1465, "Rating": 4.0, "Zip Code": "10003", "insertedAtTimestamp": "Feb 23 22:18:35 2020 GMT-8"}
{"Business ID": "1m1iOc8EplJ4tiCez7hf2Q", "Name": "750 Myrtle Diner", "Address": "750 Myrtle Ave", "Coordinates": {"latitude": 40.694779, "longitude": -73.952807}, "Number_of_Reviews": 112, "Rating": 4.0, "Zip Code": "11205", "insertedAtTimestamp": "Feb 23 22:18:35 2020 GMT-8"}
{"Business ID": "2txI-FAVf7q0SHNPcnjm7Q", "Name": "Longevousjoy", "Address": "6610 Bay Pkwy", "Coordinates": {"latitude": 40.61312, "longitude": -73.98246}, "Number_of_Reviews": 287, "Rating": 3.5, "Zip Code": "11204", "insertedAtTimestamp": "Feb 23 22:18:36 2020 GMT-8"}
{"Business ID": "CYfO97BoPiqz3KRbJ8jbeg", "Name": "Katsuno", "Address": "103-01 Metropolitan Ave", "Coordinates": {"latitude": 40.7104116655092, "longitude": -73.8499203163873}, "Number_of_Reviews": 177, "Rating": 4.0, "Zip Code": "11375", "insertedAtTimestamp": "Feb 23 22:18:36 2020 GMT-8"}
{"Business ID": "t7BIiUN0tFg33kySuuQ0aQ", "Name": "Masa", "Address": "10 Columbus CirFl 4Time Warner Center", "Coordinates": {"latitude": 40.7686063643871, "longitude": -73.9832784748688}, "Number_of_Reviews": 333, "Rating": 4.0, "Zip Code": "10019", "insertedAtTimestamp": "Feb 23 22:18:36 2020 GMT-8"}
{"Business ID": "JDrfVWUn7teXAkmgurtQZg", "Name": "Toribei", "Address": "276 5th Ave", "Coordinates": {"latitude": 40.6745180177706, "longitude": -73.9820596277137}, "Number_of_Reviews": 38, "Rating": 4.5, "Zip Code": "11215", "insertedAtTimestamp": "Feb 23 22:18:36 2020 GMT-8"}
{"Business ID": "flHcoaHEWxACgc-Vk9MsOQ", "Name": "Jukai", "Address": "237 E 53rd St", "Coordinates": {"latitude": 40.7572093705873, "longitude": -73.9678837692742}, "Number_of_Reviews": 159, "Rating": 4.0, "Zip Code": "10022", "insertedAtTimestamp": "Feb 23 22:18:37 2020 GMT-8"}
{"Business ID": "d8qCvlsG3jwxQPZc_OGogQ", "Name": "Hibino", "Address": "333 Henry St", "Coordinates": {"latitude": 40.69017, "longitude": -73.99637}, "Number_of_Reviews": 398, "Rating": 4.0, "Zip Code": "11201", "insertedAtTimestamp": "Feb 23 22:18:37 2020 GMT-8"}
{"Business ID": "_FhKGcCbiYgtkXcCiwTAiA", "Name": "Aburiya Kinnosuke", "Address": "213 E 45th St", "Coordinates": {"latitude": 40.752583, "longitude": -73.972274}, "Number_of_Reviews": 749, "Rating": 4.0, "Zip Code": "10017", "insertedAtTimestamp": "Feb 23 22:18:37 2020 GMT-8"}
{"Business ID": "VaL9GaBR_GR-q9d1VzJF3g", "Name": "Suteishi", "Address": "24 Peck Slip", "Coordinates": {"latitude": 40.70788, "longitude": -74.00194}, "Number_of_Reviews": 489, "Rating": 4.0, "Zip Code": "10038", "insertedAtTimestamp": "Feb 23 22:18:38 2020 GMT-8"}
{"Business ID": "nrxSzq-VxLqD7aFkE4SH3Q", "Name": "Cocoron", "Address": "37 Kenmare St", "Coordinates": {"latitude": 40.7207236, "longitude": -73.9953191}, "Number_of_Reviews": 636, "Rating": 4.0, "Zip Code": "10012", "insertedAtTimestamp": "Feb 23 22:18:38 2020 GMT-8"}
{"Business ID": "wcwftlB-61XG4ymGTR61aw", "Name": "SakaMai", "Address": "157 Ludlow St", "Coordinates": {"latitude": 40.7209536656701, "longitude": -73.9881407239426}, "Number_of_Reviews": 662, "Rating": 4.0, "Zip Code": "10002", "insertedAtTimestamp": "Feb 23 22:18:38 2020 GMT-8"}
{"Business ID": "u0qfikB-ppp6UwoNKqxlRw", "Name": "Flame", "Address": "100 W 82nd St", "Coordinates": {"latitude": 40.78396, "longitude": -73.97444}, "Number_of_Reviews": 399, "Rating": 4.0, "Zip Code": "10024", "insertedAtTimestamp": "Feb 23 22:18:39 2020 GMT-8"}
{"Business ID": "BlzlywklvYdek5uk_NCX9g", "Name": "Suzume", "Address": "545 Lorimer St", "Coordinates": {"latitude": 40.7131652, "longitude": -73.9494479}, "Number_of_Reviews": 295, "Rating": 4.0, "Zip Code": "11211", "insertedAtTimestamp": "Feb 23 22:18:39 2020 GMT-8"}
{"Business ID": "f48yzy50jQDH7X5xFAluOw", "Name": "Tsukimi", "Address": "228 East 10th St", "Coordinates": {"latitude": 40.72908, "longitude": -73.98541}, "Number_of_Reviews": 16, "Rating": 5.0, "Zip Code": "10003", "insertedAtTimestamp": "Feb 23 22:18:39 2020 GMT-8"}
{"Business ID": "8iSU_z2JkjjUEjm-Ur470w", "Name": "Nippori", "Address": "245 W 51st St", "Coordinates": {"latitude": 40.7628542, "longitude": -73.984939}, "Number_of_Reviews": 825, "Rating": 4.0, "Zip Code": "10019", "insertedAtTimestamp": "Feb 23 22:18:39 2020 GMT-8"}
{"Business ID": "u5V6wQQv3e4BmbyzUDYLNQ", "Name": "Takesushi", "Address": "43-46 42nd St", "Coordinates": {"latitude": 40.7441219, "longitude": -73.9224056}, "Number_of_Reviews": 357, "Rating": 4.0, "Zip Code": "11104", "insertedAtTimestamp": "Feb 23 22:18:40 2020 GMT-8"}
{"Business ID": "Hw6PFIFmH1_CHP0TVJdbBQ", "Name": "Sapporo", "Address": "7812 3rd AveBayridge", "Coordinates": {"latitude": 40.629027, "longitude": -74.029126}, "Number_of_Reviews": 89, "Rating": 4.0, "Zip Code": "11209", "insertedAtTimestamp": "Feb 23 22:18:40 2020 GMT-8"}
{"Business ID": "DNSFvZtdsqkaidmFSpm-Jw", "Name": "SOBA AZUMA", "Address": "251 W 55th St", "Coordinates": {"latitude": 40.76526, "longitude": -73.9832}, "Number_of_Reviews": 276, "Rating": 4.0, "Zip Code": "10019", "insertedAtTimestamp": "Feb 23 22:18:40 2020 GMT-8"}
{"Business ID": "GpCZORguVJZGpd5GoL9Arg", "Name": "House of Small Wonder", "Address": "77 N 6th St", "Coordinates": {"latitude": 40.718991, "longitude": -73.960833}, "Number_of_Reviews": 717, "Rating": 4.0, "Zip Code": "11249", "insertedAtTimestamp": "Feb 23 22:18:41 2020 GMT-8"}
{"Business ID": "P_UREWCQxEYVbBa-KW_Wew", "Name": "EN Japanese Brasserie", "Address": "435 Hudson St", "Coordinates": {"latitude": 40.7306, "longitude": -74.00698}, "Number_of_Reviews": 1246, "Rating": 4.0, "Zip Code": "10014", "insertedAtTimestamp": "Feb 23 22:18:41 2020 GMT-8"}
{"Business ID": "MM5P9cKlzovYLcf5qf2SwQ", "Name": "1 OR 8", "Address": "229 Dekalb Ave", "Coordinates": {"latitude": 40.6896859, "longitude": -73.9703551}, "Number_of_Reviews": 401, "Rating": 4.0, "Zip Code": "11205", "insertedAtTimestamp": "Feb 23 22:18:41 2020 GMT-8"}
{"Business ID": "hUf1EpnxbxFU4gf2nL7H-Q", "Name": "Raku it's Japanese", "Address": "212 East 52nd St", "Coordinates": {"latitude": 40.756591, "longitude": -73.969306}, "Number_of_Reviews": 8, "Rating": 5.0, "Zip Code": "10022", "insertedAtTimestamp": "Feb 23 22:18:42 2020 GMT-8"}
{"Business ID": "n1xpGOPa7XRq4or7QLjzHw", "Name": "DokoDemo", "Address": "89 E 4th St", "Coordinates": {"latitude": 40.72638, "longitude": -73.98964}, "Number_of_Reviews": 294, "Rating": 4.5, "Zip Code": "10003", "insertedAtTimestamp": "Feb 23 22:18:42 2020 GMT-8"}
{"Business ID": "8NVN6Nldm7AGoGaABBZMRw", "Name": "Izakaya NoMad", "Address": "13 W 26th St", "Coordinates": {"latitude": 40.74409, "longitude": -73.98945}, "Number_of_Reviews": 668, "Rating": 4.0, "Zip Code": "10010", "insertedAtTimestamp": "Feb 23 22:18:42 2020 GMT-8"}
{"Business ID": "qNyUkJJjg1Tu6XmhAUU1sA", "Name": "Okuda", "Address": "458 W 17th St", "Coordinates": {"latitude": 40.7437929363044, "longitude": -74.0063984206981}, "Number_of_Reviews": 34, "Rating": 5.0, "Zip Code": "10011", "insertedAtTimestamp": "Feb 23 22:18:42 2020 GMT-8"}
{"Business ID": "ONQRhDuWv0e9R5xOiI7YAA", "Name": "Gyu-Kaku Japanese BBQ", "Address": "321 W 44th StUnit 103", "Coordinates": {"latitude": 40.75908, "longitude": -73.98989}, "Number_of_Reviews": 1222, "Rating": 4.0, "Zip Code": "10036", "insertedAtTimestamp": "Feb 23 22:18:43 2020 GMT-8"}
{"Business ID": "Ms1p17KsYteDlkvHnllC2g", "Name": "Soba Totto", "Address": "211 E 43rd St", "Coordinates": {"latitude": 40.75122, "longitude": -73.97317}, "Number_of_Reviews": 897, "Rating": 4.0, "Zip Code": "10017", "insertedAtTimestamp": "Feb 23 22:18:44 2020 GMT-8"}
{"Business ID": "HC18oDJ2svQoXIddP-wuyw", "Name": "Wasan Brooklyn", "Address": "440 Bergen St", "Coordinates": {"latitude": 40.6812605, "longitude": -73.9768418}, "Number_of_Reviews": 197, "Rating": 4.0, "Zip Code": "11217", "insertedAtTimestamp": "Feb 23 22:18:44 2020 GMT-8"}
{"Business ID": "ocnHpILS80DHL--34L8xpw", "Name": "Sushi Noz", "Address": "181 E 78th St", "Coordinates": {"latitude": 40.77385, "longitude": -73.95813}, "Number_of_Reviews": 93, "Rating": 4.5, "Zip Code": "10075", "insertedAtTimestamp": "Feb 23 22:18:44 2020 GMT-8"}
{"Business ID": "QR1YIRzFjd2bi5iBzT9zXg", "Name": "Blue Ribbon Sushi", "Address": "119 Sullivan St", "Coordinates": {"latitude": 40.72612, "longitude": -74.0025299}, "Number_of_Reviews": 1094, "Rating": 4.0, "Zip Code": "10012", "insertedAtTimestamp": "Feb 23 22:18:45 2020 GMT-8"}
{"Business ID": "J9UA6rzI5WW_cDGjwDnF5g", "Name": "Tsurutontan Udon Noodle Brasserie", "Address": "21 E 16th St", "Coordinates": {"latitude": 40.73678, "longitude": -73.9910699}, "Number_of_Reviews": 1844, "Rating": 4.0, "Zip Code": "10003", "insertedAtTimestamp": "Feb 23 22:18:45 2020 GMT-8"}
{"Business ID": "_jX0YO1PykUrRKCLo0WxIw", "Name": "omakase room by maaser", "Address": "321 Bleecker St", "Coordinates": {"latitude": 40.733205, "longitude": -74.003923}, "Number_of_Reviews": 91, "Rating": 4.0, "Zip Code": "10014", "insertedAtTimestamp": "Feb 23 22:18:45 2020 GMT-8"}
{"Business ID": "ytABgZNWnFXQUjOYjh460A", "Name": "Kyo Ya", "Address": "94 E 7th St", "Coordinates": {"latitude": 40.7267, "longitude": -73.98534}, "Number_of_Reviews": 455, "Rating": 4.5, "Zip Code": "10009", "insertedAtTimestamp": "Feb 23 22:18:45 2020 GMT-8"}
{"Business ID": "YX4AGUuhhF62M9TNpJwSpQ", "Name": "Chikurin", "Address": "2362 86th St", "Coordinates": {"latitude": 40.5995, "longitude": -73.99011}, "Number_of_Reviews": 313, "Rating": 3.5, "Zip Code": "11214", "insertedAtTimestamp": "Feb 23 22:18:46 2020 GMT-8"}
{"Business ID": "AnrLdpW6G-tXQ7xhBYiA5g", "Name": "Azasu", "Address": "49 Clinton St", "Coordinates": {"latitude": 40.719758, "longitude": -73.985011}, "Number_of_Reviews": 120, "Rating": 4.0, "Zip Code": "10002", "insertedAtTimestamp": "Feb 23 22:18:46 2020 GMT-8"}
{"Business ID": "i9W3EVA6FjB6lWWSEmhndA", "Name": "Sake Bar Decibel", "Address": "240 E 9th St", "Coordinates": {"latitude": 40.729299, "longitude": -73.9878008}, "Number_of_Reviews": 975, "Rating": 4.0, "Zip Code": "10003", "insertedAtTimestamp": "Feb 23 22:18:46 2020 GMT-8"}
{"Business ID": "LKNhVc1VIt87NQL2wn9rnw", "Name": "Suki", "Address": "86 E 7th St", "Coordinates": {"latitude": 40.72702, "longitude": -73.98608}, "Number_of_Reviews": 111, "Rating": 4.5, "Zip Code": "10003", "insertedAtTimestamp": "Feb 23 22:18:47 2020 GMT-8"}
{"Business ID": "l_RAv09V67j-Hm9dyZxWhw", "Name": "Tomi Jazz", "Address": "239 E 53rd St", "Coordinates": {"latitude": 40.75725, "longitude": -73.96774}, "Number_of_Reviews": 443, "Rating": 4.0, "Zip Code": "10022", "insertedAtTimestamp": "Feb 23 22:18:47 2020 GMT-8"}
{"Business ID": "KrJ6m_TkxBAPPSNH-G7rvQ", "Name": "U-gu", "Address": "541 Myrtle AveSte B", "Coordinates": {"latitude": 40.69393, "longitude": -73.96284}, "Number_of_Reviews": 128, "Rating": 4.5, "Zip Code": "11205", "insertedAtTimestamp": "Feb 23 22:18:47 2020 GMT-8"}
{"Business ID": "xFp3xSQ43J-i7nmJfNBsZA", "Name": "Norikoh", "Address": "10 E 39th St", "Coordinates": {"latitude": 40.75116, "longitude": -73.98153}, "Number_of_Reviews": 549, "Rating": 4.0, "Zip Code": "10016", "insertedAtTimestamp": "Feb 23 22:18:47 2020 GMT-8"}
{"Business ID": "W5RSIwNKBa7k0jeAs5KDYg", "Name": "Mei Jin Ramen", "Address": "1574 2nd Ave", "Coordinates": {"latitude": 40.775049, "longitude": -73.953553}, "Number_of_Reviews": 691, "Rating": 4.0, "Zip Code": "10028", "insertedAtTimestamp": "Feb 23 22:18:48 2020 GMT-8"}
{"Business ID": "pBgru04ofeAVa6P3HJBQ9A", "Name": "OMOMO", "Address": "11 W 36th St", "Coordinates": {"latitude": 40.7502, "longitude": -73.984507}, "Number_of_Reviews": 15, "Rating": 4.5, "Zip Code": "10018", "insertedAtTimestamp": "Feb 23 22:18:48 2020 GMT-8"}
{"Business ID": "EXsorzjQ3y3Oh5-m82lgtg", "Name": "Bushniwa", "Address": "250 Varet St", "Coordinates": {"latitude": 40.70397, "longitude": -73.93344}, "Number_of_Reviews": 108, "Rating": 4.5, "Zip Code": "11206", "insertedAtTimestamp": "Feb 23 22:18:48 2020 GMT-8"}
{"Business ID": "QmelPAXgkVLZfUb27diAEw", "Name": "Shigure", "Address": "277 Church St", "Coordinates": {"latitude": 40.71853, "longitude": -74.00477}, "Number_of_Reviews": 114, "Rating": 4.0, "Zip Code": "10013", "insertedAtTimestamp": "Feb 23 22:18:49 2020 GMT-8"}
{"Business ID": "1-7C5Kv8B8PiIbfL3_uHlw", "Name": "Restaurant Riki", "Address": "141 E 45th St", "Coordinates": {"latitude": 40.7532844543457, "longitude": -73.9738540649414}, "Number_of_Reviews": 360, "Rating": 3.5, "Zip Code": "10017", "insertedAtTimestamp": "Feb 23 22:18:49 2020 GMT-8"}
{"Business ID": "kIzVGUWS2b5H_b-G0Q0-0g", "Name": "Katana Kitten", "Address": "531 Hudson St", "Coordinates": {"latitude": 40.73425, "longitude": -74.00639}, "Number_of_Reviews": 70, "Rating": 4.0, "Zip Code": "10014", "insertedAtTimestamp": "Feb 23 22:18:49 2020 GMT-8"}
{"Business ID": "PTYUAAJbEmvIv4EsyRrcnA", "Name": "Momoya", "Address": "427 Amsterdam Ave", "Coordinates": {"latitude": 40.784043, "longitude": -73.977391}, "Number_of_Reviews": 430, "Rating": 4.0, "Zip Code": "10024", "insertedAtTimestamp": "Feb 23 22:18:49 2020 GMT-8"}
{"Business ID": "6t5xWjPLWAjJV3YFMX_oaw", "Name": "Hirohisa", "Address": "73 Thompson St", "Coordinates": {"latitude": 40.724597, "longitude": -74.003174}, "Number_of_Reviews": 155, "Rating": 4.5, "Zip Code": "10012", "insertedAtTimestamp": "Feb 23 22:18:50 2020 GMT-8"}
{"Business ID": "LjAt-SP7BwIpp56TZHVsWA", "Name": "Uotora", "Address": "1075 Bergen St", "Coordinates": {"latitude": 40.676369, "longitude": -73.950486}, "Number_of_Reviews": 83, "Rating": 4.5, "Zip Code": "11216", "insertedAtTimestamp": "Feb 23 22:18:50 2020 GMT-8"}
{"Business ID": "wcnfhQ7Q_us38Q1uEARagw", "Name": "Sushi Jin", "Address": "316 E 84th St", "Coordinates": {"latitude": 40.776032, "longitude": -73.951988}, "Number_of_Reviews": 19, "Rating": 5.0, "Zip Code": "10028", "insertedAtTimestamp": "Feb 23 22:18:50 2020 GMT-8"}
{"Business ID": "MwtXOkRUndPU-ivbtLD-bQ", "Name": "Amura Japanese", "Address": "1567 2nd Ave", "Coordinates": {"latitude": 40.775001, "longitude": -73.9542}, "Number_of_Reviews": 316, "Rating": 4.0, "Zip Code": "10028", "insertedAtTimestamp": "Feb 23 22:18:51 2020 GMT-8"}
{"Business ID": "vAxm4dekBCfaRNoBYbx6OQ", "Name": "Katsu-Hama", "Address": "45 W 55th StFl 2", "Coordinates": {"latitude": 40.76254, "longitude": -73.97677}, "Number_of_Reviews": 507, "Rating": 3.5, "Zip Code": "10019", "insertedAtTimestamp": "Feb 23 22:18:51 2020 GMT-8"}
{"Business ID": "bokNBgAa9rmMMO8dkZVR1w", "Name": "Rice & Miso", "Address": "134 Nevins St", "Coordinates": {"latitude": 40.6845436245203, "longitude": -73.9837776124477}, "Number_of_Reviews": 66, "Rating": 4.5, "Zip Code": "11217", "insertedAtTimestamp": "Feb 23 22:18:51 2020 GMT-8"}
{"Business ID": "1TZ9CzGDGdAGCADjoYaliA", "Name": "Otaku Katsu", "Address": "137 Rivington St", "Coordinates": {"latitude": 40.719384, "longitude": -73.986529}, "Number_of_Reviews": 49, "Rating": 4.5, "Zip Code": "10002", "insertedAtTimestamp": "Feb 23 22:18:52 2020 GMT-8"}
{"Business ID": "IjRxYyr41Yl1fGhIrss1vg", "Name": "Kokage", "Address": "125 E 39th St", "Coordinates": {"latitude": 40.7498614, "longitude": -73.9777215}, "Number_of_Reviews": 87, "Rating": 4.0, "Zip Code": "10016", "insertedAtTimestamp": "Feb 23 22:18:52 2020 GMT-8"}
{"Business ID": "2pAophYMUh4-gVi-KJjOwA", "Name": "Konbini NY", "Address": "312 5th Ave", "Coordinates": {"latitude": 40.74701, "longitude": -73.98583}, "Number_of_Reviews": 75, "Rating": 4.0, "Zip Code": "10001", "insertedAtTimestamp": "Feb 23 22:18:52 2020 GMT-8"}
{"Business ID": "pil3w2-2REoXBwEToYZ_tQ", "Name": "Bar Moga", "Address": "128 W Houston St", "Coordinates": {"latitude": 40.72787, "longitude": -74.00107}, "Number_of_Reviews": 175, "Rating": 4.0, "Zip Code": "10012", "insertedAtTimestamp": "Feb 23 22:18:52 2020 GMT-8"}
{"Business ID": "MLeE8S5hy70A3CEqp2lD8w", "Name": "Gorin Ramen", "Address": "351 14th St", "Coordinates": {"latitude": 40.73163, "longitude": -73.98285}, "Number_of_Reviews": 9, "Rating": 5.0, "Zip Code": "10003", "insertedAtTimestamp": "Feb 23 22:18:53 2020 GMT-8"}
{"Business ID": "4eAgPj7eKonKAtk64kgUfQ", "Name": "Matsuri", "Address": "39-56 61st St", "Coordinates": {"latitude": 40.7458357, "longitude": -73.9035436}, "Number_of_Reviews": 116, "Rating": 4.5, "Zip Code": "11377", "insertedAtTimestamp": "Feb 23 22:18:53 2020 GMT-8"}
{"Business ID": "MmXZLVwWcYugi_TXSHmjeQ", "Name": "Sushi by Bou Times Square", "Address": "132 W 47th St", "Coordinates": {"latitude": 40.75851, "longitude": -73.98322}, "Number_of_Reviews": 580, "Rating": 4.5, "Zip Code": "10036", "insertedAtTimestamp": "Feb 23 22:18:53 2020 GMT-8"}
{"Business ID": "B-lJd1eBLcLk1StNbgAe9w", "Name": "Sushi Katsuei", "Address": "210 7th Ave", "Coordinates": {"latitude": 40.6707147, "longitude": -73.9785903}, "Number_of_Reviews": 434, "Rating": 4.0, "Zip Code": "11215", "insertedAtTimestamp": "Feb 23 22:18:53 2020 GMT-8"}
{"Business ID": "FdCQmAHzhbHuaP5lcsYs6w", "Name": "Gohan-ya", "Address": "14A Orchard St", "Coordinates": {"latitude": 40.7150115072727, "longitude": -73.9917685836554}, "Number_of_Reviews": 46, "Rating": 4.0, "Zip Code": "10002", "insertedAtTimestamp": "Feb 23 22:18:54 2020 GMT-8"}
{"Business ID": "c6R_hvUwsqXX2MUXWtO94Q", "Name": "Nakamura", "Address": "172 Delancey St", "Coordinates": {"latitude": 40.717975, "longitude": -73.985115}, "Number_of_Reviews": 371, "Rating": 4.0, "Zip Code": "10002", "insertedAtTimestamp": "Feb 23 22:18:54 2020 GMT-8"}
{"Business ID": "0Lnp_fi3gI2bfJ8RcMDfjg", "Name": "Gen", "Address": "659 Washington Ave", "Coordinates": {"latitude": 40.677639, "longitude": -73.963485}, "Number_of_Reviews": 274, "Rating": 4.0, "Zip Code": "11238", "insertedAtTimestamp": "Feb 23 22:18:54 2020 GMT-8"}
{"Business ID": "l7G5tDA96xbA_bx1ZgkOeg", "Name": "ICHIRAN Midtown", "Address": "132 W 31st St", "Coordinates": {"latitude": 40.74839, "longitude": -73.99062}, "Number_of_Reviews": 802, "Rating": 4.0, "Zip Code": "10001", "insertedAtTimestamp": "Feb 23 22:18:54 2020 GMT-8"}
{"Business ID": "tO6ktIDgzUQ4XOGR6-Vkvw", "Name": "Ronin Stones", "Address": "69 Clinton St", "Coordinates": {"latitude": 40.7194449632749, "longitude": -73.9850056652613}, "Number_of_Reviews": 11, "Rating": 5.0, "Zip Code": "10002", "insertedAtTimestamp": "Feb 23 22:18:55 2020 GMT-8"}
{"Business ID": "sNeefaiRztDQ10B4QzUi3g", "Name": "Shuraku", "Address": "47 8th Ave", "Coordinates": {"latitude": 40.7385446555585, "longitude": -74.0040071109515}, "Number_of_Reviews": 83, "Rating": 4.5, "Zip Code": "10014", "insertedAtTimestamp": "Feb 23 22:18:55 2020 GMT-8"}
{"Business ID": "X73hpslpgeJNhVohYIUzfQ", "Name": "Dashi - Brooklyn", "Address": "119 Ingraham StFl 1", "Coordinates": {"latitude": 40.707885, "longitude": -73.929212}, "Number_of_Reviews": 3, "Rating": 5.0, "Zip Code": "11237", "insertedAtTimestamp": "Feb 23 22:18:55 2020 GMT-8"}
{"Business ID": "et9pAFtSvNOct9Qcmtcf7g", "Name": "Mido Japanese", "Address": "612 Amsterdam AveBet. West 89 St and West 90 St", "Coordinates": {"latitude": 40.7900491, "longitude": -73.9734598}, "Number_of_Reviews": 203, "Rating": 4.0, "Zip Code": "10024", "insertedAtTimestamp": "Feb 23 22:18:56 2020 GMT-8"}
{"Business ID": "WLl0nKeWBksVM5SkKKuLpg", "Name": "TabeTomo", "Address": "131 Avenue A", "Coordinates": {"latitude": 40.72688, "longitude": -73.98311}, "Number_of_Reviews": 310, "Rating": 4.0, "Zip Code": "10009", "insertedAtTimestamp": "Feb 23 22:18:56 2020 GMT-8"}
{"Business ID": "6FZf17rNThWKoF4EU18wnw", "Name": "Yakiniku Futago", "Address": "37 W 17th St", "Coordinates": {"latitude": 40.738851870947, "longitude": -73.9941236398979}, "Number_of_Reviews": 333, "Rating": 4.5, "Zip Code": "10011", "insertedAtTimestamp": "Feb 23 22:18:56 2020 GMT-8"}
{"Business ID": "D6ZEcG1FCZ18nekMWrhgMg", "Name": "Wokuni", "Address": "327 Lexington Ave", "Coordinates": {"latitude": 40.7492189, "longitude": -73.9773529}, "Number_of_Reviews": 215, "Rating": 4.0, "Zip Code": "10016", "insertedAtTimestamp": "Feb 23 22:18:56 2020 GMT-8"}
{"Business ID": "1_JEFOI19hAu3VoODcTUvw", "Name": "Shinsen", "Address": "44 Bowery", "Coordinates": {"latitude": 40.71558, "longitude": -73.9967}, "Number_of_Reviews": 213, "Rating": 4.0, "Zip Code": "10013", "insertedAtTimestamp": "Feb 23 22:18:57 2020 GMT-8"}
{"Business ID": "wyjtGsW5NeVDknGQWnIPAQ", "Name": "wagamama - midtown - opens feb 24", "Address": "100 W 55th St", "Coordinates": {"latitude": 40.7629, "longitude": -73.9781574}, "Number_of_Reviews": 17, "Rating": 5.0, "Zip Code": "10019", "insertedAtTimestamp": "Feb 23 22:18:57 2020 GMT-8"}
{"Business ID": "CqQ2Og9kf-LhlUWtODalCQ", "Name": "Blue Ribbon Sushi Bar & Grill - New York", "Address": "308 W 58th St6 Columbus Hotel", "Coordinates": {"latitude": 40.7674948014194, "longitude": -73.9831978922043}, "Number_of_Reviews": 753, "Rating": 4.0, "Zip Code": "10019", "insertedAtTimestamp": "Feb 23 22:18:57 2020 GMT-8"}
{"Business ID": "RTgoS3PWtiHCB3uJI8lArw", "Name": "Koji Izakaya", "Address": "140 Lawrence St", "Coordinates": {"latitude": 40.69195, "longitude": -73.98641}, "Number_of_Reviews": 57, "Rating": 4.0, "Zip Code": "11201", "insertedAtTimestamp": "Feb 23 22:18:58 2020 GMT-8"}
{"Business ID": "8fr5FYU1ip0phERt1mrekg", "Name": "Bohemian Restaurant", "Address": "57 Great Jones St", "Coordinates": {"latitude": 40.72639, "longitude": -73.99236}, "Number_of_Reviews": 756, "Rating": 4.5, "Zip Code": "10012", "insertedAtTimestamp": "Feb 23 22:18:59 2020 GMT-8"}
{"Business ID": "raelHbSJ_gTo701c-KyXWg", "Name": "Minca", "Address": "536 E 5th St", "Coordinates": {"latitude": 40.72412, "longitude": -73.98288}, "Number_of_Reviews": 1662, "Rating": 4.0, "Zip Code": "10009", "insertedAtTimestamp": "Feb 23 22:18:59 2020 GMT-8"}
{"Business ID": "jWuUibgnTGsJibOrr6UUSw", "Name": "Haidilao Hotpot", "Address": "138-23 39th Ave", "Coordinates": {"latitude": 40.7612633, "longitude": -73.8280301}, "Number_of_Reviews": 707, "Rating": 4.5, "Zip Code": "11354", "insertedAtTimestamp": "Feb 23 22:18:59 2020 GMT-8"}
{"Business ID": "FKLNX5j_byvdkliG0-ygCA", "Name": "Niche", "Address": "172 Delancey St", "Coordinates": {"latitude": 40.71786, "longitude": -73.98518}, "Number_of_Reviews": 98, "Rating": 4.0, "Zip Code": "10002", "insertedAtTimestamp": "Feb 23 22:19:00 2020 GMT-8"}
{"Business ID": "wSGZA3DOFSUvALZRKCM_Sw", "Name": "Tanoshi Sushi Sake Bar", "Address": "1372 York Ave", "Coordinates": {"latitude": 40.767568, "longitude": -73.952815}, "Number_of_Reviews": 637, "Rating": 4.5, "Zip Code": "10021", "insertedAtTimestamp": "Feb 23 22:19:00 2020 GMT-8"}
{"Business ID": "zJcxZQbTSAP3q4Fy-6WAyw", "Name": "Shalom Japan", "Address": "310 S 4th St", "Coordinates": {"latitude": 40.7091679, "longitude": -73.9558028}, "Number_of_Reviews": 274, "Rating": 4.0, "Zip Code": "11211", "insertedAtTimestamp": "Feb 23 22:19:00 2020 GMT-8"}
{"Business ID": "3eBV6HwWcdHzJW3sUH-2hw", "Name": "ICHIRAN - Times Square", "Address": "152 W 49th St", "Coordinates": {"latitude": 40.76004, "longitude": -73.9833}, "Number_of_Reviews": 330, "Rating": 4.5, "Zip Code": "10019", "insertedAtTimestamp": "Feb 23 22:19:00 2020 GMT-8"}
{"Business ID": "mlJpfJMCS_bFnR5cWX6DTg", "Name": "Natsumi Tapas", "Address": "323 3rd Ave", "Coordinates": {"latitude": 40.7395565, "longitude": -73.9824123}, "Number_of_Reviews": 255, "Rating": 4.0, "Zip Code": "10010", "insertedAtTimestamp": "Feb 23 22:19:01 2020 GMT-8"}
{"Business ID": "5w8CYpHKq8oQth42wSpt-g", "Name": "Ariyoshi", "Address": "4113 Queens Blvd", "Coordinates": {"latitude": 40.7438180001399, "longitude": -73.9229787214569}, "Number_of_Reviews": 293, "Rating": 3.5, "Zip Code": "11104", "insertedAtTimestamp": "Feb 23 22:19:01 2020 GMT-8"}
{"Business ID": "ZHPp0z9Tr6qfjj2wCleLWw", "Name": "HYUN", "Address": "10 E 33rd St", "Coordinates": {"latitude": 40.7474, "longitude": -73.98444}, "Number_of_Reviews": 97, "Rating": 4.0, "Zip Code": "10016", "insertedAtTimestamp": "Feb 23 22:19:01 2020 GMT-8"}
{"Business ID": "mm8gYHxaLLRyv3CslY40TA", "Name": "Suzuki Shokudo", "Address": "38-01 31st St", "Coordinates": {"latitude": 40.75353, "longitude": -73.93184}, "Number_of_Reviews": 126, "Rating": 4.5, "Zip Code": "11101", "insertedAtTimestamp": "Feb 23 22:19:02 2020 GMT-8"}
{"Business ID": "ymb0SvFrlcWm6k_Gx5SYcQ", "Name": "Yuzu", "Address": "350 Lenox Ave", "Coordinates": {"latitude": 40.8093070983887, "longitude": -73.9438552856445}, "Number_of_Reviews": 191, "Rating": 4.0, "Zip Code": "10027", "insertedAtTimestamp": "Feb 23 22:19:02 2020 GMT-8"}
{"Business ID": "dtk1Cstz5MHr-B1AOM_nXA", "Name": "Gyu-Kaku Japanese BBQ", "Address": "805 3rd Ave2nd Flr", "Coordinates": {"latitude": 40.75537, "longitude": -73.97054}, "Number_of_Reviews": 1179, "Rating": 4.0, "Zip Code": "10022", "insertedAtTimestamp": "Feb 23 22:19:02 2020 GMT-8"}
{"Business ID": "tT6teP3ZfCAfvdPdDoqG4A", "Name": "Ki Sushi", "Address": "122 Smith St", "Coordinates": {"latitude": 40.68764, "longitude": -73.9901}, "Number_of_Reviews": 687, "Rating": 4.0, "Zip Code": "11201", "insertedAtTimestamp": "Feb 23 22:19:02 2020 GMT-8"}
{"Business ID": "9MIoDxACK6oSLwz4BVK0IQ", "Name": "Sushi By Bou", "Address": "218A Newark Ave", "Coordinates": {"latitude": 40.72223, "longitude": -74.04708}, "Number_of_Reviews": 51, "Rating": 4.5, "Zip Code": "07302", "insertedAtTimestamp": "Feb 23 22:19:03 2020 GMT-8"}
{"Business ID": "L87p5eAKGjvkS2YZYjZcrg", "Name": "Yamada Chikara NY", "Address": "249 E 49th St", "Coordinates": {"latitude": 40.75465, "longitude": -73.96934}, "Number_of_Reviews": 32, "Rating": 4.5, "Zip Code": "10017", "insertedAtTimestamp": "Feb 23 22:19:03 2020 GMT-8"}
{"Business ID": "eQ4QUGvuHGBzsOrphsVc6A", "Name": "Hakata Zen", "Address": "31 Stmarks Pl", "Coordinates": {"latitude": 40.72907733, "longitude": -73.98818617}, "Number_of_Reviews": 5, "Rating": 4.0, "Zip Code": "10003", "insertedAtTimestamp": "Feb 23 22:19:03 2020 GMT-8"}
{"Business ID": "e8EW89rpbE1G2Ev41yypTg", "Name": "Yakitori TORA", "Address": "72 Kenmare St", "Coordinates": {"latitude": 40.72095, "longitude": -73.9963}, "Number_of_Reviews": 128, "Rating": 4.0, "Zip Code": "10012", "insertedAtTimestamp": "Feb 23 22:19:04 2020 GMT-8"}
{"Business ID": "_IkMfWpOkQXRZtJAYJUJIw", "Name": "Hama Japanese Cuisine", "Address": "11 W 51st St", "Coordinates": {"latitude": 40.7597846984863, "longitude": -73.9776382446289}, "Number_of_Reviews": 370, "Rating": 4.0, "Zip Code": "10019", "insertedAtTimestamp": "Feb 23 22:19:04 2020 GMT-8"}
{"Business ID": "-86K6KX3HlUwkWTWRO3VAQ", "Name": "KYURAMEN", "Address": "133-42 37th Ave", "Coordinates": {"latitude": 40.76051, "longitude": -73.83339}, "Number_of_Reviews": 281, "Rating": 4.0, "Zip Code": "11354", "insertedAtTimestamp": "Feb 23 22:19:04 2020 GMT-8"}
{"Business ID": "zcgPjeIpjYDDVbTar9mfAQ", "Name": "Goemon", "Address": "29 Kenmare St", "Coordinates": {"latitude": 40.72083, "longitude": -73.99509}, "Number_of_Reviews": 133, "Rating": 4.0, "Zip Code": "10012", "insertedAtTimestamp": "Feb 23 22:19:04 2020 GMT-8"}
{"Business ID": "y_ylOQzCP-9D_4DcUIJ3jA", "Name": "Shabu-Tatsu East Village", "Address": "216 E 10th St", "Coordinates": {"latitude": 40.72927, "longitude": -73.98585}, "Number_of_Reviews": 629, "Rating": 4.0, "Zip Code": "10003", "insertedAtTimestamp": "Feb 23 22:19:05 2020 GMT-8"}
{"Business ID": "JCWMlkBqLxbAAK9-FQXTmg", "Name": "Kushi Izakaya", "Address": "1934 86st", "Coordinates": {"latitude": 40.6053, "longitude": -73.99972}, "Number_of_Reviews": 69, "Rating": 3.5, "Zip Code": "11214", "insertedAtTimestamp": "Feb 23 22:19:05 2020 GMT-8"}
{"Business ID": "VxVcva5YiUrwq2j4eJCFAQ", "Name": "Menya Jiro- Brooklyn", "Address": "306 Gold StSte C2", "Coordinates": {"latitude": 40.69505, "longitude": -73.98357}, "Number_of_Reviews": 125, "Rating": 4.0, "Zip Code": "11201", "insertedAtTimestamp": "Feb 23 22:19:05 2020 GMT-8"}
{"Business ID": "YoR6ouUwehLFnBQ7RAjPlw", "Name": "Zawa Japanese", "Address": "354 E 66th St", "Coordinates": {"latitude": 40.76397, "longitude": -73.9592}, "Number_of_Reviews": 98, "Rating": 4.5, "Zip Code": "10065", "insertedAtTimestamp": "Feb 23 22:19:05 2020 GMT-8"}
{"Business ID": "cL8TLMCbs2B-vgy3SFtPGg", "Name": "Geido", "Address": "331 Flatbush Ave", "Coordinates": {"latitude": 40.67792, "longitude": -73.97266}, "Number_of_Reviews": 324, "Rating": 4.0, "Zip Code": "11217", "insertedAtTimestamp": "Feb 23 22:19:06 2020 GMT-8"}
{"Business ID": "bnaeQCoBiQ7a5IfyBkrGCg", "Name": "MIFUNE New York", "Address": "245 E 44th St", "Coordinates": {"latitude": 40.75157, "longitude": -73.97172}, "Number_of_Reviews": 183, "Rating": 4.0, "Zip Code": "10017", "insertedAtTimestamp": "Feb 23 22:19:06 2020 GMT-8"}
{"Business ID": "AFt1Qcec4_JNr6PWpkRYyw", "Name": "Sushi Lin", "Address": "335 Flatbush Ave", "Coordinates": {"latitude": 40.677786, "longitude": -73.972591}, "Number_of_Reviews": 258, "Rating": 4.5, "Zip Code": "11217", "insertedAtTimestamp": "Feb 23 22:19:06 2020 GMT-8"}
{"Business ID": "FXimZKjpMjbDR20M2ruhvg", "Name": "Sapps", "Address": "27-26 Jackson Ave", "Coordinates": {"latitude": 40.74762, "longitude": -73.94008}, "Number_of_Reviews": 158, "Rating": 4.0, "Zip Code": "11101", "insertedAtTimestamp": "Feb 23 22:19:07 2020 GMT-8"}
{"Business ID": "C5tqSSgVPfgtsJn3QnvDiQ", "Name": "Hibino", "Address": "10-70 Jackson Ave", "Coordinates": {"latitude": 40.742626, "longitude": -73.95198}, "Number_of_Reviews": 191, "Rating": 4.0, "Zip Code": "11101", "insertedAtTimestamp": "Feb 23 22:19:07 2020 GMT-8"}
{"Business ID": "JhJLPp6KuBcD3CHCkEKJ_A", "Name": "Cocoron", "Address": "16 Delancey St", "Coordinates": {"latitude": 40.72031, "longitude": -73.99305}, "Number_of_Reviews": 992, "Rating": 4.0, "Zip Code": "10002", "insertedAtTimestamp": "Feb 23 22:19:07 2020 GMT-8"}
{"Business ID": "GzHqu_Ijk07yjMUX1DDg1A", "Name": "Strings Ramen", "Address": "188 2nd Ave", "Coordinates": {"latitude": 40.730839, "longitude": -73.9857772}, "Number_of_Reviews": 13, "Rating": 4.0, "Zip Code": "10003", "insertedAtTimestamp": "Feb 23 22:19:07 2020 GMT-8"}
{"Business ID": "LpVbI-E9C-CSp7WhU5h2Iw", "Name": "Fishmarket Restaurant", "Address": "111 South St", "Coordinates": {"latitude": 40.70717, "longitude": -74.00192}, "Number_of_Reviews": 545, "Rating": 4.5, "Zip Code": "10038", "insertedAtTimestamp": "Feb 23 22:19:08 2020 GMT-8"}
{"Business ID": "NRJq2BNcbjqAyxUB_bw7gw", "Name": "Momoya", "Address": "185 7th Ave", "Coordinates": {"latitude": 40.7426255196333, "longitude": -73.9966481924057}, "Number_of_Reviews": 634, "Rating": 4.0, "Zip Code": "10011", "insertedAtTimestamp": "Feb 23 22:19:08 2020 GMT-8"}
{"Business ID": "9bAyxRD6RsGEUQw424ovQA", "Name": "Nishida Sho-ten", "Address": "302 E 49th St", "Coordinates": {"latitude": 40.753969, "longitude": -73.968722}, "Number_of_Reviews": 763, "Rating": 4.0, "Zip Code": "10017", "insertedAtTimestamp": "Feb 23 22:19:08 2020 GMT-8"}
{"Business ID": "oB2cpcZNyjDklNqZN0n8hg", "Name": "Sushi Ishikawa", "Address": "419 E 74th St", "Coordinates": {"latitude": 40.768783, "longitude": -73.9538981}, "Number_of_Reviews": 206, "Rating": 4.5, "Zip Code": "10021", "insertedAtTimestamp": "Feb 23 22:19:09 2020 GMT-8"}
{"Business ID": "gZqwq8kE-Z3-DdZGOEjOkQ", "Name": "Village Yokocho", "Address": "8 Stuyvesant St", "Coordinates": {"latitude": 40.7298, "longitude": -73.9891899}, "Number_of_Reviews": 754, "Rating": 3.5, "Zip Code": "10003", "insertedAtTimestamp": "Feb 23 22:19:09 2020 GMT-8"}
{"Business ID": "rN347NNwQ0hDSlbedzI9BQ", "Name": "Kai Sushi Asian Fusion", "Address": "1475 Williamsbridge Rd", "Coordinates": {"latitude": 40.84362, "longitude": -73.84565}, "Number_of_Reviews": 233, "Rating": 4.0, "Zip Code": "10461", "insertedAtTimestamp": "Feb 23 22:19:09 2020 GMT-8"}
{"Business ID": "xtxcAUvrD4dWHJd0cwvW1A", "Name": "JeJu Noodle Bar", "Address": "679 Greenwich St", "Coordinates": {"latitude": 40.73304, "longitude": -74.00734}, "Number_of_Reviews": 539, "Rating": 4.5, "Zip Code": "10014", "insertedAtTimestamp": "Feb 23 22:19:10 2020 GMT-8"}
{"Business ID": "FLKABU82NNDnCvZSZD75Bg", "Name": "Naruto Ramen", "Address": "2634 Broadway", "Coordinates": {"latitude": 40.7968567, "longitude": -73.9698717}, "Number_of_Reviews": 246, "Rating": 4.0, "Zip Code": "10025", "insertedAtTimestamp": "Feb 23 22:19:10 2020 GMT-8"}
{"Business ID": "t1w4qyqyfEdTPhoy-5t3FA", "Name": "Morimoto", "Address": "88 10th Ave", "Coordinates": {"latitude": 40.74332, "longitude": -74.00713}, "Number_of_Reviews": 3048, "Rating": 4.0, "Zip Code": "10011", "insertedAtTimestamp": "Feb 23 22:19:10 2020 GMT-8"}
{"Business ID": "L3reOLLPez7lnOhyfCpvkg", "Name": "Shinka Ramen & Sake Bar", "Address": "93 Bowery St", "Coordinates": {"latitude": 40.7170795322745, "longitude": -73.9952574670315}, "Number_of_Reviews": 319, "Rating": 4.5, "Zip Code": "10002", "insertedAtTimestamp": "Feb 23 22:19:10 2020 GMT-8"}
{"Business ID": "UB5emSFilql0J10Jx4AHXA", "Name": "Watawa Sushi", "Address": "33-10 Ditmars Blvd", "Coordinates": {"latitude": 40.774959, "longitude": -73.9095}, "Number_of_Reviews": 882, "Rating": 4.0, "Zip Code": "11105", "insertedAtTimestamp": "Feb 23 22:19:11 2020 GMT-8"}
{"Business ID": "_2V0as8DZDwVxAi3ZJ0JkA", "Name": "Raku - It's Japanese II", "Address": "57 W 76th St", "Coordinates": {"latitude": 40.779997, "longitude": -73.976516}, "Number_of_Reviews": 311, "Rating": 4.0, "Zip Code": "10023", "insertedAtTimestamp": "Feb 23 22:19:11 2020 GMT-8"}
{"Business ID": "O9WmKufAUqDM0j2HpgLVlw", "Name": "Tamashii Ramen", "Address": "2905 Broadway", "Coordinates": {"latitude": 40.7628026, "longitude": -73.926578}, "Number_of_Reviews": 711, "Rating": 4.0, "Zip Code": "11106", "insertedAtTimestamp": "Feb 23 22:19:11 2020 GMT-8"}
{"Business ID": "aE7hRzK1t80iFyi4Do77lw", "Name": "Sushi Uesugi", "Address": "934 3rd Ave", "Coordinates": {"latitude": 40.6560432255486, "longitude": -74.0064066279496}, "Number_of_Reviews": 31, "Rating": 4.5, "Zip Code": "11232", "insertedAtTimestamp": "Feb 23 22:19:12 2020 GMT-8"}
{"Business ID": "479rycCXZojMT9S0cl8Oxg", "Name": "Yakiniku Gen", "Address": "250 E 52nd St", "Coordinates": {"latitude": 40.75611, "longitude": -73.96815}, "Number_of_Reviews": 144, "Rating": 4.0, "Zip Code": "10022", "insertedAtTimestamp": "Feb 23 22:19:12 2020 GMT-8"}
{"Business ID": "SoBdWOxymmY5yKANn63UWw", "Name": "Ozu", "Address": "78 Clark St", "Coordinates": {"latitude": 40.6974732130766, "longitude": -73.9932652562857}, "Number_of_Reviews": 254, "Rating": 4.0, "Zip Code": "11201", "insertedAtTimestamp": "Feb 23 22:19:12 2020 GMT-8"}
{"Business ID": "kvpSqh3q7r3HK3Tw-wXGEQ", "Name": "Ashbox", "Address": "1154 Manhattan Ave", "Coordinates": {"latitude": 40.738267, "longitude": -73.955158}, "Number_of_Reviews": 127, "Rating": 4.5, "Zip Code": "11222", "insertedAtTimestamp": "Feb 23 22:19:12 2020 GMT-8"}
{"Business ID": "ruBUmEgfRVu7M6i64XMQ9Q", "Name": "Kouzan Japanese Restaurant", "Address": "685 Amsterdam Ave", "Coordinates": {"latitude": 40.79226, "longitude": -73.97145}, "Number_of_Reviews": 220, "Rating": 3.5, "Zip Code": "10025", "insertedAtTimestamp": "Feb 23 22:19:13 2020 GMT-8"}
{"Business ID": "8nmMip_O4vcPDcujTEa_TA", "Name": "Kobeyaki", "Address": "215 E 86th St", "Coordinates": {"latitude": 40.77861, "longitude": -73.9530599}, "Number_of_Reviews": 210, "Rating": 4.0, "Zip Code": "10028", "insertedAtTimestamp": "Feb 23 22:19:14 2020 GMT-8"}
{"Business ID": "JRmQRFEEnSUdAcesHun9AQ", "Name": "ICHIRAN - Brooklyn", "Address": "374 Johnson Ave", "Coordinates": {"latitude": 40.707587, "longitude": -73.933271}, "Number_of_Reviews": 1123, "Rating": 3.5, "Zip Code": "11206", "insertedAtTimestamp": "Feb 23 22:19:14 2020 GMT-8"}
{"Business ID": "Pfjb9Rn5Th7R-pLXVARwlA", "Name": "Jin Ramen - West Harlem", "Address": "3183 Broadway", "Coordinates": {"latitude": 40.8154774, "longitude": -73.9587672}, "Number_of_Reviews": 1062, "Rating": 4.0, "Zip Code": "10027", "insertedAtTimestamp": "Feb 23 22:19:15 2020 GMT-8"}
{"Business ID": "p4W_z-zh96LHEAtQ8LRSVQ", "Name": "Shinagawa", "Address": "157 E 33rd St", "Coordinates": {"latitude": 40.74549, "longitude": -73.97935}, "Number_of_Reviews": 113, "Rating": 4.5, "Zip Code": "10016", "insertedAtTimestamp": "Feb 23 22:19:15 2020 GMT-8"}
{"Business ID": "zuD-iB7hV_dnf_JzBk_DCQ", "Name": "Juku", "Address": "32 Mulberry St", "Coordinates": {"latitude": 40.71461, "longitude": -73.999528}, "Number_of_Reviews": 118, "Rating": 4.0, "Zip Code": "10013", "insertedAtTimestamp": "Feb 23 22:19:15 2020 GMT-8"}
{"Business ID": "itH4GH2Mw2D5n5kkQAtMog", "Name": "Abiko Curry", "Address": "2 W 32nd St", "Coordinates": {"latitude": 40.7474259684723, "longitude": -73.9862179359732}, "Number_of_Reviews": 773, "Rating": 4.0, "Zip Code": "10001", "insertedAtTimestamp": "Feb 23 22:19:15 2020 GMT-8"}
{"Business ID": "56PeolgNURAG4x6q7nanmw", "Name": "Odo", "Address": "17 W 20th St", "Coordinates": {"latitude": 40.74032, "longitude": -73.99223}, "Number_of_Reviews": 23, "Rating": 4.0, "Zip Code": "10011", "insertedAtTimestamp": "Feb 23 22:19:16 2020 GMT-8"}
{"Business ID": "8tcFpd0dcmfzbLgbTO4tdw", "Name": "Sen Sakana", "Address": "28 W 44th St", "Coordinates": {"latitude": 40.75533, "longitude": -73.9815}, "Number_of_Reviews": 282, "Rating": 4.0, "Zip Code": "10036", "insertedAtTimestamp": "Feb 23 22:19:16 2020 GMT-8"}
{"Business ID": "T2fE7hGS83Ba-QNCOqbK4A", "Name": "Ako Sushi", "Address": "205 Bedford Ave", "Coordinates": {"latitude": 40.7169049, "longitude": -73.9585858}, "Number_of_Reviews": 376, "Rating": 4.0, "Zip Code": "11211", "insertedAtTimestamp": "Feb 23 22:19:16 2020 GMT-8"}
{"Business ID": "4Jp0wdJXLpmgCwWv6o6YEQ", "Name": "Torishin", "Address": "362 W 53rd St", "Coordinates": {"latitude": 40.76496, "longitude": -73.98721}, "Number_of_Reviews": 290, "Rating": 4.0, "Zip Code": "10019", "insertedAtTimestamp": "Feb 23 22:19:16 2020 GMT-8"}
{"Business ID": "TeBthQZ2xpxyvXheS08ovw", "Name": "Blue Ribbon Sushi Izakaya", "Address": "187 Orchard St", "Coordinates": {"latitude": 40.7220839812692, "longitude": -73.9882245327093}, "Number_of_Reviews": 513, "Rating": 4.0, "Zip Code": "10002", "insertedAtTimestamp": "Feb 23 22:19:17 2020 GMT-8"}
{"Business ID": "aY8JCml1xlOg5a1BHn2DNQ", "Name": "Tsukushi", "Address": "357 E 50th St", "Coordinates": {"latitude": 40.75414, "longitude": -73.96648}, "Number_of_Reviews": 93, "Rating": 4.0, "Zip Code": "10017", "insertedAtTimestamp": "Feb 23 22:19:17 2020 GMT-8"}
{"Business ID": "mdAt1D1XUG-HwTYmPSi9fA", "Name": "Izakaya Mew Flushing", "Address": "146-13 Northern Blvd", "Coordinates": {"latitude": 40.76536, "longitude": -73.82022}, "Number_of_Reviews": 166, "Rating": 4.0, "Zip Code": "11354", "insertedAtTimestamp": "Feb 23 22:19:17 2020 GMT-8"}
{"Business ID": "5QgBCrAbXbM1ORiqZDrBPQ", "Name": "Cha-An", "Address": "230 E 9th StFl 2", "Coordinates": {"latitude": 40.72947, "longitude": -73.98813}, "Number_of_Reviews": 1784, "Rating": 4.0, "Zip Code": "10003", "insertedAtTimestamp": "Feb 23 22:19:17 2020 GMT-8"}
{"Business ID": "15R8rx9SHKNVYBwgAuTyGA", "Name": "Sushi Ginza Onodera", "Address": "461 5th Ave", "Coordinates": {"latitude": 40.7523399, "longitude": -73.98151}, "Number_of_Reviews": 183, "Rating": 4.5, "Zip Code": "10017", "insertedAtTimestamp": "Feb 23 22:19:18 2020 GMT-8"}
{"Business ID": "5eXrMPB5GUM-sapL8T-znQ", "Name": "Sushi Inoue", "Address": "381 Lenox Ave", "Coordinates": {"latitude": 40.8104436, "longitude": -73.943642}, "Number_of_Reviews": 127, "Rating": 4.0, "Zip Code": "10027", "insertedAtTimestamp": "Feb 23 22:19:18 2020 GMT-8"}
{"Business ID": "0v2rI4CivY0nrQM3_W4VmA", "Name": "Kondo", "Address": "2913 Broadway", "Coordinates": {"latitude": 40.7626545293336, "longitude": -73.9265084112689}, "Number_of_Reviews": 163, "Rating": 4.0, "Zip Code": "11106", "insertedAtTimestamp": "Feb 23 22:19:18 2020 GMT-8"}
{"Business ID": "Ww3aAPf0sA5ygAXu2qV1ZQ", "Name": "Taiki", "Address": "134 Nevins St", "Coordinates": {"latitude": 40.6845433545275, "longitude": -73.9837775425761}, "Number_of_Reviews": 66, "Rating": 4.5, "Zip Code": "11217", "insertedAtTimestamp": "Feb 23 22:19:19 2020 GMT-8"}
{"Business ID": "MGRo61aHFUeRlWhSbTv2NA", "Name": "Sushi By M", "Address": "75 E 4th St", "Coordinates": {"latitude": 40.72666, "longitude": -73.99027}, "Number_of_Reviews": 404, "Rating": 4.5, "Zip Code": "10003", "insertedAtTimestamp": "Feb 23 22:19:19 2020 GMT-8"}
{"Business ID": "7qvsMuRypQYg1Ux8kghybg", "Name": "Kissaki Omakase", "Address": "319 Bowery", "Coordinates": {"latitude": 40.72531, "longitude": -73.99181}, "Number_of_Reviews": 27, "Rating": 5.0, "Zip Code": "10003", "insertedAtTimestamp": "Feb 23 22:19:19 2020 GMT-8"}
{"Business ID": "yono7ZJcU1KiqfC-xUMaIA", "Name": "Japan Village", "Address": "934 3rd Ave", "Coordinates": {"latitude": 40.65597, "longitude": -74.00641}, "Number_of_Reviews": 224, "Rating": 3.0, "Zip Code": "11232", "insertedAtTimestamp": "Feb 23 22:19:19 2020 GMT-8"}
{"Business ID": "W2Dj_3C2ySoXgg1SaGVj6g", "Name": "Nippon Cha", "Address": "39-34 Bell Blvd", "Coordinates": {"latitude": 40.76432, "longitude": -73.77167}, "Number_of_Reviews": 795, "Rating": 4.0, "Zip Code": "11361", "insertedAtTimestamp": "Feb 23 22:19:20 2020 GMT-8"}
{"Business ID": "GlPJPpKvPR4d8dmcSEYpdA", "Name": "Takahachi Bakery", "Address": "25 Murray St", "Coordinates": {"latitude": 40.71393, "longitude": -74.00822}, "Number_of_Reviews": 898, "Rating": 4.0, "Zip Code": "10007", "insertedAtTimestamp": "Feb 23 22:19:20 2020 GMT-8"}
{"Business ID": "9jRwUN3z7k0seLOzWERVeg", "Name": "Ramen-Ya", "Address": "181 W 4th St", "Coordinates": {"latitude": 40.732536, "longitude": -74.001681}, "Number_of_Reviews": 960, "Rating": 4.0, "Zip Code": "10014", "insertedAtTimestamp": "Feb 23 22:19:20 2020 GMT-8"}
{"Business ID": "TShvHWNHbCSxac7pehA6YQ", "Name": "SushiNao", "Address": "311 W 17th St", "Coordinates": {"latitude": 40.74196, "longitude": -74.00159}, "Number_of_Reviews": 56, "Rating": 4.0, "Zip Code": "10011", "insertedAtTimestamp": "Feb 23 22:19:21 2020 GMT-8"}
{"Business ID": "toxwdOCz37bX5dJ_O1h2Ew", "Name": "Sugarcane Raw Bar Grill", "Address": "55 Water St", "Coordinates": {"latitude": 40.703799, "longitude": -73.992343}, "Number_of_Reviews": 572, "Rating": 4.0, "Zip Code": "11201", "insertedAtTimestamp": "Feb 23 22:19:21 2020 GMT-8"}
{"Business ID": "vX0_qcuVXoeeH1_24I8lSA", "Name": "Sushi Kaito", "Address": "244 W 72nd St", "Coordinates": {"latitude": 40.77916, "longitude": -73.98367}, "Number_of_Reviews": 167, "Rating": 4.5, "Zip Code": "10023", "insertedAtTimestamp": "Feb 23 22:19:21 2020 GMT-8"}
{"Business ID": "aK2ipD9K8-usBw_gkvvJuw", "Name": "Nare Sushi", "Address": "115 E 57th St", "Coordinates": {"latitude": 40.76143, "longitude": -73.96992}, "Number_of_Reviews": 337, "Rating": 4.0, "Zip Code": "10022", "insertedAtTimestamp": "Feb 23 22:19:21 2020 GMT-8"}
{"Business ID": "ynR4-QgEOsE7VhNfIWo73w", "Name": "Secchu Yokota", "Address": "199 E 3rd StFl 1", "Coordinates": {"latitude": 40.72283, "longitude": -73.98311}, "Number_of_Reviews": 96, "Rating": 5.0, "Zip Code": "10009", "insertedAtTimestamp": "Feb 23 22:19:22 2020 GMT-8"}
{"Business ID": "aTzxrI2o3vH_HQkqeFszzg", "Name": "Juban", "Address": "207 10th Ave", "Coordinates": {"latitude": 40.74731, "longitude": -74.00467}, "Number_of_Reviews": 177, "Rating": 4.0, "Zip Code": "10011", "insertedAtTimestamp": "Feb 23 22:19:22 2020 GMT-8"}
{"Business ID": "XKDHsS8PevoEdFLNtt05FA", "Name": "Shuya Cafe de Ramen", "Address": "42-13 Broadway", "Coordinates": {"latitude": 40.758007205736, "longitude": -73.9167939666258}, "Number_of_Reviews": 277, "Rating": 4.5, "Zip Code": "11103", "insertedAtTimestamp": "Feb 23 22:19:22 2020 GMT-8"}
{"Business ID": "C69uTzoWFaIWcpnYf2LbRw", "Name": "ROKC", "Address": "3452 Broadway", "Coordinates": {"latitude": 40.8235051, "longitude": -73.9522425}, "Number_of_Reviews": 406, "Rating": 4.5, "Zip Code": "10031", "insertedAtTimestamp": "Feb 23 22:19:23 2020 GMT-8"}
{"Business ID": "7EaiwMVaNdQibSs0yYkE5Q", "Name": "Sushi Yasuda", "Address": "204 E 43rd St", "Coordinates": {"latitude": 40.75113, "longitude": -73.97347}, "Number_of_Reviews": 2117, "Rating": 4.0, "Zip Code": "10017", "insertedAtTimestamp": "Feb 23 22:19:23 2020 GMT-8"}
{"Business ID": "j-a8HUcsBJXHV2IfF786jw", "Name": "Kogane Ramen", "Address": "76 Henry St", "Coordinates": {"latitude": 40.698608, "longitude": -73.992675}, "Number_of_Reviews": 332, "Rating": 4.0, "Zip Code": "11201", "insertedAtTimestamp": "Feb 23 22:19:23 2020 GMT-8"}
{"Business ID": "R9jTfyPlnfk23gy8VCCVAg", "Name": "Shabushabu Macoron", "Address": "61 Delancey", "Coordinates": {"latitude": 40.71909, "longitude": -73.99086}, "Number_of_Reviews": 66, "Rating": 4.5, "Zip Code": "10002", "insertedAtTimestamp": "Feb 23 22:19:23 2020 GMT-8"}
{"Business ID": "9MIkAs75TQzdwljVkUoZEg", "Name": "Rakuzen AYCE Sushi", "Address": "6408 Fort Hamilton Pkwy", "Coordinates": {"latitude": 40.63112, "longitude": -74.00903}, "Number_of_Reviews": 186, "Rating": 3.5, "Zip Code": "11219", "insertedAtTimestamp": "Feb 23 22:19:24 2020 GMT-8"}
{"Business ID": "enDIsmxSG2bQccQWgGNcbg", "Name": "Takumen", "Address": "5-50 50th Ave", "Coordinates": {"latitude": 40.74259, "longitude": -73.9546699}, "Number_of_Reviews": 184, "Rating": 4.0, "Zip Code": "11101", "insertedAtTimestamp": "Feb 23 22:19:24 2020 GMT-8"}
{"Business ID": "TBp9gdS6xEbSQqffVZ7iag", "Name": "KazuNori  | The Original Hand Roll Bar", "Address": "15 W 28th St", "Coordinates": {"latitude": 40.74519, "longitude": -73.98824}, "Number_of_Reviews": 916, "Rating": 4.5, "Zip Code": "10001", "insertedAtTimestamp": "Feb 23 22:19:24 2020 GMT-8"}
{"Business ID": "NB5u0htOK_1_dTkYALpRxg", "Name": "Yoi Sushi Japanese", "Address": "133-22 39th Ave", "Coordinates": {"latitude": 40.75899, "longitude": -73.83364}, "Number_of_Reviews": 188, "Rating": 4.5, "Zip Code": "11354", "insertedAtTimestamp": "Feb 23 22:19:25 2020 GMT-8"}
{"Business ID": "qd9_gxrmskbOT6OLN9sShA", "Name": "Dock Asian Eatery", "Address": "22 Wyckoff Ave", "Coordinates": {"latitude": 40.70628, "longitude": -73.92274}, "Number_of_Reviews": 124, "Rating": 4.0, "Zip Code": "11237", "insertedAtTimestamp": "Feb 23 22:19:25 2020 GMT-8"}
{"Business ID": "SxKvgnkMMZdhBJcxxKQnww", "Name": "Nobu Fifty Seven", "Address": "40 W 57th St", "Coordinates": {"latitude": 40.7636210840864, "longitude": -73.9765048613641}, "Number_of_Reviews": 1191, "Rating": 4.0, "Zip Code": "10019", "insertedAtTimestamp": "Feb 23 22:19:25 2020 GMT-8"}
{"Business ID": "UI6YjZ34NnLdymKx2qf53g", "Name": "Sushi Ishikawa", "Address": "207 W 80th St", "Coordinates": {"latitude": 40.784237, "longitude": -73.978311}, "Number_of_Reviews": 9, "Rating": 5.0, "Zip Code": "10024", "insertedAtTimestamp": "Feb 23 22:19:25 2020 GMT-8"}
{"Business ID": "27ASh8-hTL5jp5d_WQGHxw", "Name": "Ten Japanese Cuisine", "Address": "440 7th Ave", "Coordinates": {"latitude": 40.6634864807129, "longitude": -73.984748840332}, "Number_of_Reviews": 242, "Rating": 4.0, "Zip Code": "11215", "insertedAtTimestamp": "Feb 23 22:19:26 2020 GMT-8"}
{"Business ID": "_FAh31lob7Dnn4iGiLIwng", "Name": "MUI", "Address": "10 W 32nd StFl 5", "Coordinates": {"latitude": 40.74732, "longitude": -73.98646}, "Number_of_Reviews": 250, "Rating": 4.0, "Zip Code": "10001", "insertedAtTimestamp": "Feb 23 22:19:26 2020 GMT-8"}
{"Business ID": "s2ii7iNxb0-hGVxHf0yexw", "Name": "Menkoi Sato", "Address": "7 Cornelia St", "Coordinates": {"latitude": 40.7316536618558, "longitude": -74.0017022376845}, "Number_of_Reviews": 171, "Rating": 4.5, "Zip Code": "10014", "insertedAtTimestamp": "Feb 23 22:19:26 2020 GMT-8"}
{"Business ID": "0gPXct_l_82phIEoKdtWZw", "Name": "RYUJIN", "Address": "513 Grand St", "Coordinates": {"latitude": 40.711178187852, "longitude": -73.9506256676857}, "Number_of_Reviews": 264, "Rating": 4.0, "Zip Code": "11211", "insertedAtTimestamp": "Feb 23 22:19:26 2020 GMT-8"}
{"Business ID": "LkT2-XYjuCSmObs8rOLdzA", "Name": "Taro Sushi", "Address": "244 Flatbush Ave", "Coordinates": {"latitude": 40.6796449843722, "longitude": -73.9743090899592}, "Number_of_Reviews": 522, "Rating": 4.0, "Zip Code": "11217", "insertedAtTimestamp": "Feb 23 22:19:27 2020 GMT-8"}
{"Business ID": "Z-KV06jQbPovawp9dJD3vA", "Name": "Nishida Sho-ten NEXT", "Address": "304 E 49th St", "Coordinates": {"latitude": 40.75394, "longitude": -73.96864}, "Number_of_Reviews": 60, "Rating": 4.0, "Zip Code": "10017", "insertedAtTimestamp": "Feb 23 22:19:27 2020 GMT-8"}
{"Business ID": "3n6i8TwGEIL9KnCCHUyiqA", "Name": "Sai", "Address": "95-34 Queens Blvd", "Coordinates": {"latitude": 40.73012, "longitude": -73.8636}, "Number_of_Reviews": 134, "Rating": 4.5, "Zip Code": "11374", "insertedAtTimestamp": "Feb 23 22:19:27 2020 GMT-8"}
{"Business ID": "VVlHJ6_sJbRAodV5lCzBnA", "Name": "Kanoyama", "Address": "175 2nd Ave", "Coordinates": {"latitude": 40.730545186039, "longitude": -73.986544028849}, "Number_of_Reviews": 654, "Rating": 4.0, "Zip Code": "10003", "insertedAtTimestamp": "Feb 23 22:19:28 2020 GMT-8"}
{"Business ID": "ev6e12vhY_0y4qE1cRhv0A", "Name": "Udon West Midtown", "Address": "150 E 46th St", "Coordinates": {"latitude": 40.7535446865563, "longitude": -73.9735724478504}, "Number_of_Reviews": 1023, "Rating": 4.0, "Zip Code": "10017", "insertedAtTimestamp": "Feb 23 22:19:29 2020 GMT-8"}
{"Business ID": "xYDays-olVw50rdusxW5Rw", "Name": "Wanpaku", "Address": "621 Manhattan Ave", "Coordinates": {"latitude": 40.72355, "longitude": -73.95092}, "Number_of_Reviews": 77, "Rating": 4.0, "Zip Code": "11222", "insertedAtTimestamp": "Feb 23 22:19:29 2020 GMT-8"}
{"Business ID": "1en3taVtoDPgtEDWHrFeog", "Name": "Beron Beron", "Address": "164 1st Ave", "Coordinates": {"latitude": 40.7287866, "longitude": -73.9841504}, "Number_of_Reviews": 104, "Rating": 4.0, "Zip Code": "10009", "insertedAtTimestamp": "Feb 23 22:19:30 2020 GMT-8"}
{"Business ID": "WHXgDm3kcU-aONfjR8tX0A", "Name": "O Ya", "Address": "120 E 28th St", "Coordinates": {"latitude": 40.74283, "longitude": -73.98319}, "Number_of_Reviews": 246, "Rating": 4.5, "Zip Code": "10016", "insertedAtTimestamp": "Feb 23 22:19:30 2020 GMT-8"}
{"Business ID": "af_i3fBov6BCMSfp5rrAdg", "Name": "Ramen Lab", "Address": "70 Kenmare St", "Coordinates": {"latitude": 40.720911, "longitude": -73.996285}, "Number_of_Reviews": 331, "Rating": 4.0, "Zip Code": "10012", "insertedAtTimestamp": "Feb 23 22:19:31 2020 GMT-8"}
{"Business ID": "yckkW5iFRiBOWsH3tZTr3Q", "Name": "Hashi Ramen & Izakaya", "Address": "192-12 Northern Blvd", "Coordinates": {"latitude": 40.7578101754189, "longitude": -73.7891612201929}, "Number_of_Reviews": 1078, "Rating": 4.0, "Zip Code": "11358", "insertedAtTimestamp": "Feb 23 22:19:31 2020 GMT-8"}
{"Business ID": "cZAh6BzEeMI5fofWeDvuhw", "Name": "Sake Bar Satsko", "Address": "202 E 7th St", "Coordinates": {"latitude": 40.72445, "longitude": -73.9802799}, "Number_of_Reviews": 162, "Rating": 4.0, "Zip Code": "10009", "insertedAtTimestamp": "Feb 23 22:19:31 2020 GMT-8"}
{"Business ID": "nhez4xxvwwYIQEN2Vrj9mQ", "Name": "YUJI Ramen", "Address": "150 Ainslie St", "Coordinates": {"latitude": 40.712527, "longitude": -73.9487788}, "Number_of_Reviews": 129, "Rating": 4.0, "Zip Code": "11211", "insertedAtTimestamp": "Feb 23 22:19:31 2020 GMT-8"}
{"Business ID": "TN4RnyqHMSupRFot4Q-_EA", "Name": "Ippudo Westside", "Address": "321 W 51st St", "Coordinates": {"latitude": 40.76344, "longitude": -73.98661}, "Number_of_Reviews": 3656, "Rating": 4.0, "Zip Code": "10019", "insertedAtTimestamp": "Feb 23 22:19:32 2020 GMT-8"}
{"Business ID": "GNbzHUMc2BB23-kW4cJboQ", "Name": "OMAKASE by TEISUI", "Address": "246 5th Ave", "Coordinates": {"latitude": 40.74465, "longitude": -73.98755}, "Number_of_Reviews": 133, "Rating": 4.0, "Zip Code": "10001", "insertedAtTimestamp": "Feb 23 22:19:32 2020 GMT-8"}
{"Business ID": "eRtceh_W_yniAfCqJni5Bg", "Name": "Go! Go! Curry!", "Address": "273 W 38th St", "Coordinates": {"latitude": 40.75463, "longitude": -73.99115}, "Number_of_Reviews": 1446, "Rating": 4.0, "Zip Code": "10018", "insertedAtTimestamp": "Feb 23 22:19:32 2020 GMT-8"}
{"Business ID": "oTkzgr7hzOAdlP99Auj3GQ", "Name": "Momosan Ramen & Sake", "Address": "342 Lexington Ave", "Coordinates": {"latitude": 40.74993, "longitude": -73.97746}, "Number_of_Reviews": 1624, "Rating": 4.0, "Zip Code": "10016", "insertedAtTimestamp": "Feb 23 22:19:33 2020 GMT-8"}
{"Business ID": "wUu9WcGjP8KS6KlpARChyQ", "Name": "Gyu-Kaku Japanese BBQ", "Address": "4052 Main St", "Coordinates": {"latitude": 40.758159, "longitude": -73.829822}, "Number_of_Reviews": 552, "Rating": 4.5, "Zip Code": "11354", "insertedAtTimestamp": "Feb 23 22:19:33 2020 GMT-8"}
{"Business ID": "tvpkgdOyFFRGwwu8zyR36g", "Name": "Sasa Song", "Address": "201-07 Northern Blvd", "Coordinates": {"latitude": 40.75786, "longitude": -73.78195}, "Number_of_Reviews": 110, "Rating": 4.0, "Zip Code": "11361", "insertedAtTimestamp": "Feb 23 22:19:33 2020 GMT-8"}
{"Business ID": "91tQ4ToReVVCA5MTJi9gfw", "Name": "Iron Chef House", "Address": "92 Clark St", "Coordinates": {"latitude": 40.6972664717136, "longitude": -73.9925980567932}, "Number_of_Reviews": 398, "Rating": 4.0, "Zip Code": "11201", "insertedAtTimestamp": "Feb 23 22:19:34 2020 GMT-8"}
{"Business ID": "vec8jeVbbSGzVlStl0Xp_Q", "Name": "Chikarashi", "Address": "227 Canal St", "Coordinates": {"latitude": 40.71787, "longitude": -73.99948}, "Number_of_Reviews": 485, "Rating": 4.0, "Zip Code": "10013", "insertedAtTimestamp": "Feb 23 22:19:34 2020 GMT-8"}
{"Business ID": "Ywdce1GlDhjs8f8v7qZM_g", "Name": "Unagi-Ya Hachibei", "Address": "238 E 53rd StFl 2", "Coordinates": {"latitude": 40.757, "longitude": -73.96805}, "Number_of_Reviews": 57, "Rating": 3.5, "Zip Code": "10022", "insertedAtTimestamp": "Feb 23 22:19:34 2020 GMT-8"}
{"Business ID": "oyyubJoK0VZ2V3a5sVJULg", "Name": "Natsumi", "Address": "226 W 50th St", "Coordinates": {"latitude": 40.76174, "longitude": -73.98503}, "Number_of_Reviews": 848, "Rating": 4.0, "Zip Code": "10019", "insertedAtTimestamp": "Feb 23 22:19:35 2020 GMT-8"}
{"Business ID": "s8W7-_v13OFJ-671FpL23w", "Name": "Inaka Japanese Fusion", "Address": "8318 3rd Ave", "Coordinates": {"latitude": 40.6252403259277, "longitude": -74.030647277832}, "Number_of_Reviews": 187, "Rating": 4.0, "Zip Code": "11209", "insertedAtTimestamp": "Feb 23 22:19:35 2020 GMT-8"}
{"Business ID": "mESab-FqL5QqSVsnX72asQ", "Name": "Zen Ramen & Sushi", "Address": "150 W 36th street", "Coordinates": {"latitude": 40.75185, "longitude": -73.98892}, "Number_of_Reviews": 1642, "Rating": 4.5, "Zip Code": "10018", "insertedAtTimestamp": "Feb 23 22:19:35 2020 GMT-8"}
{"Business ID": "1ZVR5zwQHNyfpy76OhFs9g", "Name": "B\u016bmu", "Address": "61 W 8th St", "Coordinates": {"latitude": 40.7335, "longitude": -73.99907}, "Number_of_Reviews": 19, "Rating": 3.5, "Zip Code": "10011", "insertedAtTimestamp": "Feb 23 22:19:35 2020 GMT-8"}
{"Business ID": "hh0ae47ojPqq3USCRLmAjg", "Name": "Tomoe Sushi", "Address": "172 Thompson St", "Coordinates": {"latitude": 40.7277, "longitude": -74.0001599}, "Number_of_Reviews": 943, "Rating": 4.0, "Zip Code": "10012", "insertedAtTimestamp": "Feb 23 22:19:36 2020 GMT-8"}
{"Business ID": "ieXKc6S3WlEiVkyxgaF9Ig", "Name": "Tempura Matsui", "Address": "222 E 39th St", "Coordinates": {"latitude": 40.74819, "longitude": -73.97467}, "Number_of_Reviews": 132, "Rating": 4.5, "Zip Code": "10016", "insertedAtTimestamp": "Feb 23 22:19:36 2020 GMT-8"}
{"Business ID": "W_ebg9LGWmhuzffKnguwoQ", "Name": "Sake kawa", "Address": "32-05 36th Ave", "Coordinates": {"latitude": 40.7563, "longitude": -73.92855}, "Number_of_Reviews": 70, "Rating": 4.5, "Zip Code": "11106", "insertedAtTimestamp": "Feb 23 22:19:36 2020 GMT-8"}
{"Business ID": "m6sYBuozGY1JhnHlBf1Bzg", "Name": "BondST", "Address": "6 Bond St", "Coordinates": {"latitude": 40.726934, "longitude": -73.994404}, "Number_of_Reviews": 982, "Rating": 4.0, "Zip Code": "10012", "insertedAtTimestamp": "Feb 23 22:19:37 2020 GMT-8"}
{"Business ID": "VWlidaImhVzgyVQRbhXsew", "Name": "Fugu Sushi", "Address": "6804 Bay Pkwy", "Coordinates": {"latitude": 40.612165, "longitude": -73.983628}, "Number_of_Reviews": 144, "Rating": 3.5, "Zip Code": "11204", "insertedAtTimestamp": "Feb 23 22:19:37 2020 GMT-8"}
{"Business ID": "hvrQQ0YWqgw0__OnofqXag", "Name": "Kuu Ramen", "Address": "20 John St", "Coordinates": {"latitude": 40.7096786, "longitude": -74.0089569}, "Number_of_Reviews": 639, "Rating": 4.0, "Zip Code": "10038", "insertedAtTimestamp": "Feb 23 22:19:37 2020 GMT-8"}
{"Business ID": "Dv28TvKBh_8i6W02uAaMKw", "Name": "Samurai Papa BS", "Address": "594 Lafayette Ave", "Coordinates": {"latitude": 40.68981, "longitude": -73.95101}, "Number_of_Reviews": 154, "Rating": 4.0, "Zip Code": "11216", "insertedAtTimestamp": "Feb 23 22:19:38 2020 GMT-8"}
{"Business ID": "kr_Wu5m0P-AEghraNqXeTA", "Name": "Ikinari Steak East Village", "Address": "90 E 10th St", "Coordinates": {"latitude": 40.73088, "longitude": -73.98968}, "Number_of_Reviews": 770, "Rating": 4.0, "Zip Code": "10003", "insertedAtTimestamp": "Feb 23 22:19:38 2020 GMT-8"}
{"Business ID": "7xpbioe88rnW7JjzLEQeRg", "Name": "Samurai Papa", "Address": "32 Varet St", "Coordinates": {"latitude": 40.702892072912, "longitude": -73.943588398397}, "Number_of_Reviews": 267, "Rating": 4.5, "Zip Code": "11206", "insertedAtTimestamp": "Feb 23 22:19:38 2020 GMT-8"}
{"Business ID": "QaEqD7q2GtmlovBOPC6yIQ", "Name": "Murasaki", "Address": "4644 Vernon Blvd", "Coordinates": {"latitude": 40.7457764869508, "longitude": -73.9532554683031}, "Number_of_Reviews": 196, "Rating": 4.5, "Zip Code": "11101", "insertedAtTimestamp": "Feb 23 22:19:39 2020 GMT-8"}
{"Business ID": "-pab00ajP_NS1KGfILveYA", "Name": "Marumi", "Address": "546 Laguardia Pl", "Coordinates": {"latitude": 40.7289699, "longitude": -73.99837}, "Number_of_Reviews": 410, "Rating": 4.0, "Zip Code": "10012", "insertedAtTimestamp": "Feb 23 22:19:39 2020 GMT-8"}
{"Business ID": "wQU3LMmOPNzxL-ptOi_F5w", "Name": "Kobeyaki", "Address": "293 7th Ave", "Coordinates": {"latitude": 40.7462138, "longitude": -73.99388}, "Number_of_Reviews": 540, "Rating": 4.0, "Zip Code": "10001", "insertedAtTimestamp": "Feb 23 22:19:39 2020 GMT-8"}
{"Business ID": "0ePn6TQSJQky4ueKeGQvpQ", "Name": "SUGARFISH by sushi nozawa", "Address": "33 E 20th St", "Coordinates": {"latitude": 40.73901, "longitude": -73.98882}, "Number_of_Reviews": 813, "Rating": 4.0, "Zip Code": "10003", "insertedAtTimestamp": "Feb 23 22:19:40 2020 GMT-8"}
{"Business ID": "ZOpnIsm7ihoO1gq2YmGdzw", "Name": "Zurutto Ramen & Gyoza Bar", "Address": "142 W 72nd St", "Coordinates": {"latitude": 40.777836, "longitude": -73.980476}, "Number_of_Reviews": 389, "Rating": 4.0, "Zip Code": "10023", "insertedAtTimestamp": "Feb 23 22:19:40 2020 GMT-8"}
{"Business ID": "k_rLFIMOAbvchgWKEuKdtw", "Name": "Kikoo Sushi", "Address": "998 Columbus Ave", "Coordinates": {"latitude": 40.8016099, "longitude": -73.96164}, "Number_of_Reviews": 90, "Rating": 4.0, "Zip Code": "10025", "insertedAtTimestamp": "Feb 23 22:19:40 2020 GMT-8"}
{"Business ID": "2Bg8Jfl2FvH1unmvxNS0dQ", "Name": "Sik Gaek", "Address": "49-11 Roosevelt Ave", "Coordinates": {"latitude": 40.743485, "longitude": -73.9148356}, "Number_of_Reviews": 567, "Rating": 4.0, "Zip Code": "11377", "insertedAtTimestamp": "Feb 23 22:19:41 2020 GMT-8"}
{"Business ID": "MWx4HB9p7pCzse9CInLuDw", "Name": "Sushi Seki", "Address": "1143 1st Ave", "Coordinates": {"latitude": 40.761918, "longitude": -73.960536}, "Number_of_Reviews": 497, "Rating": 4.0, "Zip Code": "10065", "insertedAtTimestamp": "Feb 23 22:19:41 2020 GMT-8"}
{"Business ID": "5qF6oqYOeivUbsVf1MsQAA", "Name": "Aoyu Sushi", "Address": "3532 A Johnson Ave", "Coordinates": {"latitude": 40.8861634640195, "longitude": -73.9096963405609}, "Number_of_Reviews": 232, "Rating": 4.5, "Zip Code": "10463", "insertedAtTimestamp": "Feb 23 22:19:41 2020 GMT-8"}
{"Business ID": "qVlDLz8Ri-ThAFJgYHuQ9A", "Name": "Omusubi Gonbei", "Address": "120 E 41st St", "Coordinates": {"latitude": 40.7508187, "longitude": -73.9769974}, "Number_of_Reviews": 46, "Rating": 4.5, "Zip Code": "10017", "insertedAtTimestamp": "Feb 23 22:19:42 2020 GMT-8"}
{"Business ID": "B_kcyXzmkJlFI9pSl7PHvw", "Name": "Restaurant Ukiyo", "Address": "239 E 5th St", "Coordinates": {"latitude": 40.72699, "longitude": -73.98922}, "Number_of_Reviews": 71, "Rating": 4.5, "Zip Code": "10003", "insertedAtTimestamp": "Feb 23 22:19:42 2020 GMT-8"}
{"Business ID": "HJuHZOL14YOHC68f0F1lMg", "Name": "Dokkdo", "Address": "262 W 15th St", "Coordinates": {"latitude": 40.7402095, "longitude": -74.00173267}, "Number_of_Reviews": 13, "Rating": 4.5, "Zip Code": "10011", "insertedAtTimestamp": "Feb 23 22:19:42 2020 GMT-8"}
{"Business ID": "xrnk8mgoV7up6fauVmugpw", "Name": "Jun-Men Ramen Bar", "Address": "249 9th Ave", "Coordinates": {"latitude": 40.748209, "longitude": -74.00047}, "Number_of_Reviews": 618, "Rating": 4.0, "Zip Code": "10001", "insertedAtTimestamp": "Feb 23 22:19:42 2020 GMT-8"}
{"Business ID": "44SY464xDHbvOcjDzRbKkQ", "Name": "Ippudo NY", "Address": "65 4th Ave", "Coordinates": {"latitude": 40.73092, "longitude": -73.99015}, "Number_of_Reviews": 9947, "Rating": 4.0, "Zip Code": "10003", "insertedAtTimestamp": "Feb 23 22:19:43 2020 GMT-8"}
{"Business ID": "9O859_RIFsgQ9VXfUfNebg", "Name": "Domodachi", "Address": "300 Union Ave", "Coordinates": {"latitude": 40.8360032749111, "longitude": -74.1129330173135}, "Number_of_Reviews": 31, "Rating": 5.0, "Zip Code": "07070", "insertedAtTimestamp": "Feb 23 22:19:43 2020 GMT-8"}
{"Business ID": "zGAQqDu0Ak2khVYs9WdQxw", "Name": "Sushi Nakazawa", "Address": "23 Commerce St", "Coordinates": {"latitude": 40.7317465228689, "longitude": -74.0045493828034}, "Number_of_Reviews": 1379, "Rating": 4.5, "Zip Code": "10014", "insertedAtTimestamp": "Feb 23 22:19:43 2020 GMT-8"}
{"Business ID": "lUb0soiyYDUph_u13SpKTA", "Name": "Hinoki Restaurant & Bar", "Address": "71-37 Austin St", "Coordinates": {"latitude": 40.719715, "longitude": -73.843301}, "Number_of_Reviews": 110, "Rating": 4.0, "Zip Code": "11375", "insertedAtTimestamp": "Feb 23 22:19:44 2020 GMT-8"}
{"Business ID": "g9IFea9brBr8j8awcdOBOw", "Name": "Chopped Parsley", "Address": "500 W 146th St", "Coordinates": {"latitude": 40.82593, "longitude": -73.94742}, "Number_of_Reviews": 126, "Rating": 4.5, "Zip Code": "10031", "insertedAtTimestamp": "Feb 23 22:19:44 2020 GMT-8"}
{"Business ID": "nEkVibaTuIFEcTNtltFgJg", "Name": "Kura", "Address": "130 St Marks Pl", "Coordinates": {"latitude": 40.726709, "longitude": -73.9835794}, "Number_of_Reviews": 472, "Rating": 4.5, "Zip Code": "10009", "insertedAtTimestamp": "Feb 23 22:19:44 2020 GMT-8"}
{"Business ID": "i76WF5zltXBgNmV-6eEPQw", "Name": "Pepper Lunch Broadway", "Address": "243 W 54th St", "Coordinates": {"latitude": 40.76449, "longitude": -73.9833}, "Number_of_Reviews": 92, "Rating": 4.0, "Zip Code": "10019", "insertedAtTimestamp": "Feb 23 22:19:46 2020 GMT-8"}
{"Business ID": "EdyhCrCslsOsqup12oNpDw", "Name": "Bessou", "Address": "55 Water StTime out Market", "Coordinates": {"latitude": 40.7034191, "longitude": -73.991612045108}, "Number_of_Reviews": 11, "Rating": 3.5, "Zip Code": "11201", "insertedAtTimestamp": "Feb 23 22:19:46 2020 GMT-8"}
{"Business ID": "OINi1A9bSUUN5vi7xgi3ZQ", "Name": "Uchu", "Address": "217 Eldridge St", "Coordinates": {"latitude": 40.72172, "longitude": -73.99026}, "Number_of_Reviews": 77, "Rating": 4.5, "Zip Code": "10002", "insertedAtTimestamp": "Feb 23 22:19:46 2020 GMT-8"}
{"Business ID": "e3JALGueMcc2eLXRK8HPNQ", "Name": "Ki Sushi", "Address": "282 Flatbush Ave", "Coordinates": {"latitude": 40.6784417729132, "longitude": -73.9734394269355}, "Number_of_Reviews": 158, "Rating": 4.5, "Zip Code": "11217", "insertedAtTimestamp": "Feb 23 22:19:46 2020 GMT-8"}
{"Business ID": "Yv2W9NMGgLiFHjatC-oHag", "Name": "mochiron", "Address": "34-18 30th Ave", "Coordinates": {"latitude": 40.7653, "longitude": -73.91856}, "Number_of_Reviews": 76, "Rating": 4.0, "Zip Code": "11103", "insertedAtTimestamp": "Feb 23 22:19:47 2020 GMT-8"}
{"Business ID": "1VulIvaA95_ZjBIs1O0sxQ", "Name": "Brooklyn Ball Factory", "Address": "95 Montrose Ave", "Coordinates": {"latitude": 40.7072338027948, "longitude": -73.9458661779097}, "Number_of_Reviews": 124, "Rating": 4.5, "Zip Code": "11206", "insertedAtTimestamp": "Feb 23 22:19:47 2020 GMT-8"}
{"Business ID": "30pqvzHrCNmnodJCRyzrTg", "Name": "Snacky", "Address": "187 Grand St", "Coordinates": {"latitude": 40.71439, "longitude": -73.9607}, "Number_of_Reviews": 192, "Rating": 4.0, "Zip Code": "11211", "insertedAtTimestamp": "Feb 23 22:19:47 2020 GMT-8"}
{"Business ID": "-u9yPjmvZilrXYM8JlKG6w", "Name": "Kappo Masa", "Address": "976 Madison Ave", "Coordinates": {"latitude": 40.7746468, "longitude": -73.9635315}, "Number_of_Reviews": 61, "Rating": 3.5, "Zip Code": "10075", "insertedAtTimestamp": "Feb 23 22:19:48 2020 GMT-8"}
{"Business ID": "4TQMO6AaKSXHMbKvGAf-gg", "Name": "Llama San", "Address": "359 6th Ave", "Coordinates": {"latitude": 40.73225, "longitude": -74.00078}, "Number_of_Reviews": 107, "Rating": 4.0, "Zip Code": "10014", "insertedAtTimestamp": "Feb 23 22:19:48 2020 GMT-8"}
{"Business ID": "RElijPqDOAPTHT3J4n_FEA", "Name": "Mu Ramen", "Address": "12-09 Jackson Ave", "Coordinates": {"latitude": 40.743797, "longitude": -73.950631}, "Number_of_Reviews": 1215, "Rating": 3.5, "Zip Code": "11101", "insertedAtTimestamp": "Feb 23 22:19:49 2020 GMT-8"}
{"Business ID": "ZfuZ2byArGq-5j8zX8Afeg", "Name": "Zest Sushi", "Address": "249 Broome St", "Coordinates": {"latitude": 40.7178344726563, "longitude": -73.9899597167969}, "Number_of_Reviews": 820, "Rating": 4.0, "Zip Code": "10002", "insertedAtTimestamp": "Feb 23 22:19:49 2020 GMT-8"}
{"Business ID": "dAK5-ftIdu4IK7MRUFizuA", "Name": "Tenzan", "Address": "7117 18th Ave", "Coordinates": {"latitude": 40.6151355763058, "longitude": -73.9939702657333}, "Number_of_Reviews": 295, "Rating": 3.5, "Zip Code": "11204", "insertedAtTimestamp": "Feb 23 22:19:50 2020 GMT-8"}
{"Business ID": "vw8e7QV4XDc_xViMLARqwQ", "Name": "RESOBOX", "Address": "41-26 27th St", "Coordinates": {"latitude": 40.7511464, "longitude": -73.939074}, "Number_of_Reviews": 140, "Rating": 3.5, "Zip Code": "11101", "insertedAtTimestamp": "Feb 23 22:19:50 2020 GMT-8"}
{"Business ID": "bHGETjP_InKy0sIVHFgHyw", "Name": "Sushi Of Gari", "Address": "402 E 78th St", "Coordinates": {"latitude": 40.77137, "longitude": -73.95275}, "Number_of_Reviews": 616, "Rating": 4.0, "Zip Code": "10075", "insertedAtTimestamp": "Feb 23 22:19:50 2020 GMT-8"}
{"Business ID": "5UqEDoMZCrvhSKgCWg5GGw", "Name": "Isohama", "Address": "1666 3rd Ave", "Coordinates": {"latitude": 40.78361, "longitude": -73.95088}, "Number_of_Reviews": 162, "Rating": 4.0, "Zip Code": "10128", "insertedAtTimestamp": "Feb 23 22:19:51 2020 GMT-8"}
{"Business ID": "alFl7eiu6Go-YxZAdp88Fw", "Name": "Go! Go! Curry!", "Address": "12 John StWorld Trade Center Stadium", "Coordinates": {"latitude": 40.7098966, "longitude": -74.0090997}, "Number_of_Reviews": 364, "Rating": 4.0, "Zip Code": "10038", "insertedAtTimestamp": "Feb 23 22:19:51 2020 GMT-8"}
{"Business ID": "h-nMOzi-_PEowyZk-q66BA", "Name": "Satsuki", "Address": "114 W 47th St", "Coordinates": {"latitude": 40.758184, "longitude": -73.983069}, "Number_of_Reviews": 51, "Rating": 4.0, "Zip Code": "10036", "insertedAtTimestamp": "Feb 23 22:19:51 2020 GMT-8"}
{"Business ID": "4qtJ_u-7-73ts5UPa6NBmA", "Name": "Ni Japanese Delicacies", "Address": "88 Essex St", "Coordinates": {"latitude": 40.7185896, "longitude": -73.9881543}, "Number_of_Reviews": 45, "Rating": 4.5, "Zip Code": "10002", "insertedAtTimestamp": "Feb 23 22:19:52 2020 GMT-8"}
{"Business ID": "pTMnHb_W3sKqS8oCzjHdVA", "Name": "SenYa", "Address": "109 1st Ave", "Coordinates": {"latitude": 40.7269015463545, "longitude": -73.986101118587}, "Number_of_Reviews": 244, "Rating": 4.0, "Zip Code": "10003", "insertedAtTimestamp": "Feb 23 22:19:52 2020 GMT-8"}
{"Business ID": "pDXpe-kGZia6An9PsbjAGg", "Name": "Toriko NY", "Address": "76 Carmine St", "Coordinates": {"latitude": 40.72943, "longitude": -74.00466}, "Number_of_Reviews": 73, "Rating": 4.0, "Zip Code": "10014", "insertedAtTimestamp": "Feb 23 22:19:52 2020 GMT-8"}
{"Business ID": "25KSIumOXSnysnUIGAhNYw", "Name": "Fuji Hibachi", "Address": "321 W 42nd St", "Coordinates": {"latitude": 40.757916, "longitude": -73.990702}, "Number_of_Reviews": 319, "Rating": 3.5, "Zip Code": "10036", "insertedAtTimestamp": "Feb 23 22:19:53 2020 GMT-8"}
{"Business ID": "jCettteufZZP9bAx5Pxovw", "Name": "19 @ Juku - Omakase", "Address": "32 Mulberry St", "Coordinates": {"latitude": 40.7146, "longitude": -73.9995299}, "Number_of_Reviews": 37, "Rating": 4.5, "Zip Code": "10013", "insertedAtTimestamp": "Feb 23 22:19:53 2020 GMT-8"}
{"Business ID": "Clumryf360iOnwpZ2ML8aw", "Name": "Sushi You", "Address": "246 E 51st StSte 1", "Coordinates": {"latitude": 40.75554, "longitude": -73.96874}, "Number_of_Reviews": 269, "Rating": 4.0, "Zip Code": "10022", "insertedAtTimestamp": "Feb 23 22:19:53 2020 GMT-8"}
{"Business ID": "lY_gb_hNbit6GHBiOn3VeQ", "Name": "Nami Nori", "Address": "33 Carmine St", "Coordinates": {"latitude": 40.730284, "longitude": -74.003212}, "Number_of_Reviews": 116, "Rating": 4.0, "Zip Code": "10014", "insertedAtTimestamp": "Feb 23 22:19:54 2020 GMT-8"}
{"Business ID": "FXFQJmhK6elesopXdhjvFQ", "Name": "Amber", "Address": "103 W 70th St", "Coordinates": {"latitude": 40.7764053344727, "longitude": -73.9798736572266}, "Number_of_Reviews": 108, "Rating": 4.0, "Zip Code": "10023", "insertedAtTimestamp": "Feb 23 22:19:54 2020 GMT-8"}
{"Business ID": "T1bgtJcjtc-6xykWqBRfUw", "Name": "Mentoku", "Address": "744 9th Ave", "Coordinates": {"latitude": 40.76352, "longitude": -73.98852}, "Number_of_Reviews": 422, "Rating": 4.0, "Zip Code": "10019", "insertedAtTimestamp": "Feb 23 22:19:55 2020 GMT-8"}
{"Business ID": "G4qZvheX74VwYvek7I8iQg", "Name": "Buntopia", "Address": "994 Broadway", "Coordinates": {"latitude": 40.69598, "longitude": -73.93398}, "Number_of_Reviews": 281, "Rating": 4.5, "Zip Code": "11221", "insertedAtTimestamp": "Feb 23 22:19:55 2020 GMT-8"}
{"Business ID": "7_RQG7fNEBuiQyXpTe7mCw", "Name": "Fishing Restaurant Zauo", "Address": "152 W 24th St", "Coordinates": {"latitude": 40.7444, "longitude": -73.99455}, "Number_of_Reviews": 242, "Rating": 4.0, "Zip Code": "10011", "insertedAtTimestamp": "Feb 23 22:19:55 2020 GMT-8"}
{"Business ID": "kCk2uqmmJBQ80iLuncNhlQ", "Name": "Kiraku Sushi", "Address": "1948 Williamsbridge Rd", "Coordinates": {"latitude": 40.8532877, "longitude": -73.8534942}, "Number_of_Reviews": 78, "Rating": 3.5, "Zip Code": "10461", "insertedAtTimestamp": "Feb 23 22:19:56 2020 GMT-8"}
{"Business ID": "ujozQCThEuSfEXi5_6ZTPQ", "Name": "Ramen Setagaya", "Address": "280 Bedford Ave", "Coordinates": {"latitude": 40.7147999, "longitude": -73.96115}, "Number_of_Reviews": 256, "Rating": 4.0, "Zip Code": "11249", "insertedAtTimestamp": "Feb 23 22:19:56 2020 GMT-8"}
{"Business ID": "e-G1yC5u8LOcQ-fx0Lxthw", "Name": "Ajihei Bushwick", "Address": "156 Knickerbocker Ave", "Coordinates": {"latitude": 40.70416, "longitude": -73.92799}, "Number_of_Reviews": 77, "Rating": 4.5, "Zip Code": "11237", "insertedAtTimestamp": "Feb 23 22:19:56 2020 GMT-8"}
{"Business ID": "sgw7_RcDSN5UcMPeviegFA", "Name": "Kakurega Sushi", "Address": "133-44 37th Ave", "Coordinates": {"latitude": 40.760567, "longitude": -73.833354}, "Number_of_Reviews": 70, "Rating": 4.0, "Zip Code": "11354", "insertedAtTimestamp": "Feb 23 22:19:57 2020 GMT-8"}
{"Business ID": "FTMN9gexnMk6LdvEj8ZaRQ", "Name": "Sushi Yasu", "Address": "70-11 Austin St", "Coordinates": {"latitude": 40.720967, "longitude": -73.846356}, "Number_of_Reviews": 482, "Rating": 4.0, "Zip Code": "11375", "insertedAtTimestamp": "Feb 23 22:19:57 2020 GMT-8"}
{"Business ID": "FaTf-DEdPN8NIdD2VWf3aA", "Name": "Makoto", "Address": "1224 St Georges Ave", "Coordinates": {"latitude": 40.5803782, "longitude": -74.2936741}, "Number_of_Reviews": 177, "Rating": 4.0, "Zip Code": "07001", "insertedAtTimestamp": "Feb 23 22:19:57 2020 GMT-8"}
{"Business ID": "a5-ChYM1t2Fl019KLPVBNw", "Name": "Rakuzen Elmhurst", "Address": "89-23 Queens Blvd", "Coordinates": {"latitude": 40.734813, "longitude": -73.873449}, "Number_of_Reviews": 125, "Rating": 3.5, "Zip Code": "11373", "insertedAtTimestamp": "Feb 23 22:19:58 2020 GMT-8"}
{"Business ID": "fePu8xy0ir_ikZcS_vVSBA", "Name": "Asuka Sushi", "Address": "300 W 23rd St", "Coordinates": {"latitude": 40.74529, "longitude": -73.99888}, "Number_of_Reviews": 939, "Rating": 4.0, "Zip Code": "10011", "insertedAtTimestamp": "Feb 23 22:19:58 2020 GMT-8"}
{"Business ID": "pqebqpVTT8bR_s9iEu8dOA", "Name": "Curry-Ya", "Address": "214 E 10th St", "Coordinates": {"latitude": 40.72922, "longitude": -73.98604}, "Number_of_Reviews": 711, "Rating": 4.0, "Zip Code": "10003", "insertedAtTimestamp": "Feb 23 22:19:58 2020 GMT-8"}
{"Business ID": "py1zfy48JMV6tMZRvgxMKA", "Name": "Palace of Japan", "Address": "3505 Johnson Ave", "Coordinates": {"latitude": 40.88612, "longitude": -73.91}, "Number_of_Reviews": 181, "Rating": 3.5, "Zip Code": "10463", "insertedAtTimestamp": "Feb 23 22:19:58 2020 GMT-8"}
{"Business ID": "MQway2v2b2Qyjr8ThZdakQ", "Name": "Ninja Sushi", "Address": "75 Washington Ave", "Coordinates": {"latitude": 40.8089392144319, "longitude": -74.1470579258698}, "Number_of_Reviews": 240, "Rating": 4.5, "Zip Code": "07110", "insertedAtTimestamp": "Feb 23 22:19:59 2020 GMT-8"}
{"Business ID": "1yvEVWnJfodsReGHc8DuVQ", "Name": "Silver Rice", "Address": "575A Flatbush Ave", "Coordinates": {"latitude": 40.6597410822446, "longitude": -73.9604239538312}, "Number_of_Reviews": 82, "Rating": 4.5, "Zip Code": "11225", "insertedAtTimestamp": "Feb 23 22:19:59 2020 GMT-8"}
{"Business ID": "QJTLAOMNvhV1_jPfcQ_qPw", "Name": "Nippon", "Address": "155 E 52nd St", "Coordinates": {"latitude": 40.75743, "longitude": -73.97042}, "Number_of_Reviews": 163, "Rating": 3.5, "Zip Code": "10022", "insertedAtTimestamp": "Feb 23 22:19:59 2020 GMT-8"}
{"Business ID": "rn6SmSqAYx2kLFIAxytMMQ", "Name": "Kajitsu", "Address": "125 E 39th St", "Coordinates": {"latitude": 40.7498614, "longitude": -73.9777215}, "Number_of_Reviews": 238, "Rating": 4.0, "Zip Code": "10016", "insertedAtTimestamp": "Feb 23 22:20:00 2020 GMT-8"}
{"Business ID": "eS9mTLlWwu_Ap2ROMQWPxg", "Name": "Chuko", "Address": "565 Vanderbilt Ave", "Coordinates": {"latitude": 40.680784, "longitude": -73.967455}, "Number_of_Reviews": 1062, "Rating": 4.0, "Zip Code": "11238", "insertedAtTimestamp": "Feb 23 22:20:00 2020 GMT-8"}
{"Business ID": "FxswnvW4Fat6dFYcQNaE7Q", "Name": "Hall", "Address": "17 W 20th St", "Coordinates": {"latitude": 40.74032, "longitude": -73.99223}, "Number_of_Reviews": 40, "Rating": 4.5, "Zip Code": "10011", "insertedAtTimestamp": "Feb 23 22:20:00 2020 GMT-8"}
{"Business ID": "DN6TPJk4crQq2IgddVke4w", "Name": "Genki Sushi", "Address": "150 Greaves Ln", "Coordinates": {"latitude": 40.553831, "longitude": -74.142749}, "Number_of_Reviews": 76, "Rating": 4.0, "Zip Code": "10308", "insertedAtTimestamp": "Feb 23 22:20:01 2020 GMT-8"}
{"Business ID": "FCoRGys6wgE7fSQ_YAUBeg", "Name": "Donguri Restaurant", "Address": "309 E 83rd St", "Coordinates": {"latitude": 40.775724, "longitude": -73.952431}, "Number_of_Reviews": 142, "Rating": 4.0, "Zip Code": "10028", "insertedAtTimestamp": "Feb 23 22:20:01 2020 GMT-8"}
{"Business ID": "Cpg3Vcru1-CozSdvcrGlnA", "Name": "Sanpoutei Gyoza & Ramen", "Address": "92 2nd Ave", "Coordinates": {"latitude": 40.726912, "longitude": -73.9885}, "Number_of_Reviews": 17, "Rating": 4.0, "Zip Code": "10003", "insertedAtTimestamp": "Feb 23 22:20:01 2020 GMT-8"}
{"Business ID": "cLxp5gIPWIhmvpmdPo7BsA", "Name": "969 NYC Coffee", "Address": "37-61 80th St", "Coordinates": {"latitude": 40.74779, "longitude": -73.88553}, "Number_of_Reviews": 254, "Rating": 4.5, "Zip Code": "11372", "insertedAtTimestamp": "Feb 23 22:20:02 2020 GMT-8"}
{"Business ID": "orYWYTk6kNK1YODsADk_tg", "Name": "The Jin", "Address": "856 10th Ave", "Coordinates": {"latitude": 40.76857, "longitude": -73.98874}, "Number_of_Reviews": 251, "Rating": 4.5, "Zip Code": "10019", "insertedAtTimestamp": "Feb 23 22:20:02 2020 GMT-8"}
{"Business ID": "8Oo2AtQEPDfxIOnA8wfXoQ", "Name": "886", "Address": "26 Saint Marks Pl", "Coordinates": {"latitude": 40.72877, "longitude": -73.98873}, "Number_of_Reviews": 341, "Rating": 4.0, "Zip Code": "10003", "insertedAtTimestamp": "Feb 23 22:20:02 2020 GMT-8"}
{"Business ID": "yj4culC4vfNKWXdj5ZxJ4Q", "Name": "Kosaka", "Address": "220 W 13th St", "Coordinates": {"latitude": 40.7381972955808, "longitude": -74.0014449879527}, "Number_of_Reviews": 162, "Rating": 4.5, "Zip Code": "10011", "insertedAtTimestamp": "Feb 23 22:20:04 2020 GMT-8"}
{"Business ID": "LHcpOjPtc8QQCrFiRFjWyA", "Name": "Slow Loris", "Address": "556 Flatbush Ave", "Coordinates": {"latitude": 40.6601311, "longitude": -73.9607934}, "Number_of_Reviews": 84, "Rating": 4.0, "Zip Code": "11225", "insertedAtTimestamp": "Feb 23 22:20:04 2020 GMT-8"}
{"Business ID": "3Jr_9I2ouYHDNk8XWKdZ3w", "Name": "Sasabune", "Address": "401 E 73rd St", "Coordinates": {"latitude": 40.76846, "longitude": -73.95515}, "Number_of_Reviews": 389, "Rating": 4.0, "Zip Code": "10021", "insertedAtTimestamp": "Feb 23 22:20:04 2020 GMT-8"}
{"Business ID": "RRNU27hv8rhBYx-mOinwRA", "Name": "Santouka Ramen", "Address": "595 River Rd", "Coordinates": {"latitude": 40.81627, "longitude": -73.97983}, "Number_of_Reviews": 662, "Rating": 4.0, "Zip Code": "07020", "insertedAtTimestamp": "Feb 23 22:20:05 2020 GMT-8"}
{"Business ID": "4CAJ-JvgbzBdoWq1CXtCFw", "Name": "Umi Sushi", "Address": "177-13 Union Tpke", "Coordinates": {"latitude": 40.7261983305216, "longitude": -73.790670633316}, "Number_of_Reviews": 607, "Rating": 4.5, "Zip Code": "11366", "insertedAtTimestamp": "Feb 23 22:20:05 2020 GMT-8"}
{"Business ID": "abNHO9-xlCsv31gghCUuxw", "Name": "Zutto Japanese American Pub", "Address": "77 Hudson St", "Coordinates": {"latitude": 40.71847, "longitude": -74.00903}, "Number_of_Reviews": 881, "Rating": 4.0, "Zip Code": "10013", "insertedAtTimestamp": "Feb 23 22:20:05 2020 GMT-8"}
{"Business ID": "ZrzSDDj54aUlPqn4MQMKeQ", "Name": "Momo Sushi Shack", "Address": "43 Bogart St", "Coordinates": {"latitude": 40.7051406133, "longitude": -73.933340055132}, "Number_of_Reviews": 658, "Rating": 4.0, "Zip Code": "11206", "insertedAtTimestamp": "Feb 23 22:20:05 2020 GMT-8"}
{"Business ID": "_Rht6oJmkku0kJob-fMzNw", "Name": "Sankaku Bar", "Address": "428 Greenwich St", "Coordinates": {"latitude": 40.72241, "longitude": -74.00986}, "Number_of_Reviews": 4, "Rating": 5.0, "Zip Code": "10013", "insertedAtTimestamp": "Feb 23 22:20:06 2020 GMT-8"}
{"Business ID": "JPEIN-ZFo0-6X06nz6cfYA", "Name": "Sushi Daizen", "Address": "47-38 Vernon Blvd", "Coordinates": {"latitude": 40.74445, "longitude": -73.9538199}, "Number_of_Reviews": 109, "Rating": 4.5, "Zip Code": "11101", "insertedAtTimestamp": "Feb 23 22:20:06 2020 GMT-8"}
{"Business ID": "YjDOSFuRWNp2d1znivWyIA", "Name": "Sunrise Mart", "Address": "494 Broome St", "Coordinates": {"latitude": 40.7232311, "longitude": -74.0025149}, "Number_of_Reviews": 275, "Rating": 4.0, "Zip Code": "10012", "insertedAtTimestamp": "Feb 23 22:20:06 2020 GMT-8"}
{"Business ID": "09y5uyX7z41mjoA9fVF1bQ", "Name": "Tang Restaurant", "Address": "196-50 Northern Blvd", "Coordinates": {"latitude": 40.75744, "longitude": -73.78383}, "Number_of_Reviews": 613, "Rating": 4.0, "Zip Code": "11358", "insertedAtTimestamp": "Feb 23 22:20:07 2020 GMT-8"}
{"Business ID": "NCnOkzbyfzDltnBnJySfzw", "Name": "Amami Bar and Restaurant", "Address": "57 Nassau Ave", "Coordinates": {"latitude": 40.723548, "longitude": -73.952194}, "Number_of_Reviews": 142, "Rating": 4.0, "Zip Code": "11222", "insertedAtTimestamp": "Feb 23 22:20:07 2020 GMT-8"}
{"Business ID": "eyrc1L7VnWK0TcF9cheR4w", "Name": "Okawa", "Address": "77-05 37th AveSte A", "Coordinates": {"latitude": 40.7494447, "longitude": -73.8884602},